{
  "AAP": {
    "name": "百里峡",
    "city": "保定",
    "pinyin": "bailixia",
    "short": "blx",
    "lon": 115.3874497,
    "lat": 39.6822072,
    "geo_source": "osm"
  },
  "AAV": {
    "name": "应县西",
    "city": "朔州",
    "pinyin": "yingxianxi",
    "short": "yxx",
    "lon": 113.0067093,
    "lat": 39.6232451,
    "geo_source": "osm"
  },
  "AAX": {
    "name": "昂昂溪",
    "city": "齐齐哈尔",
    "pinyin": "angangxi",
    "short": "aax",
    "lon": 123.8095637,
    "lat": 47.1590778,
    "geo_source": "osm"
  },
  "ABB": {
    "name": "阿城北",
    "city": "哈尔滨",
    "pinyin": "achengbei",
    "short": "acb",
    "lon": 127.0175194,
    "lat": 45.5874877,
    "geo_source": "osm"
  },
  "ABJ": {
    "name": "永登北",
    "city": "兰州",
    "pinyin": "yongdengbei",
    "short": "ydb",
    "lon": 103.2431375,
    "lat": 36.7230667,
    "geo_source": "osm"
  },
  "ABN": {
    "name": "宜昌北",
    "city": "宜昌",
    "pinyin": "yichangbei",
    "short": "ycb",
    "lon": 111.4696507,
    "lat": 30.7470051,
    "geo_source": "osm"
  },
  "ABV": {
    "name": "运城北",
    "city": "运城",
    "pinyin": "yunchengbei",
    "short": "ycb",
    "lon": 110.9784418,
    "lat": 35.0996519,
    "geo_source": "osm"
  },
  "ABZ": {
    "name": "玉林北",
    "city": "玉林",
    "pinyin": "yulinbei",
    "short": "ylb",
    "lon": 110.24472,
    "lat": 22.7259273,
    "geo_source": "osm"
  },
  "ACB": {
    "name": "阿城",
    "city": "哈尔滨",
    "pinyin": "acheng",
    "short": "ach",
    "lon": 126.9885306,
    "lat": 45.5505656,
    "geo_source": "osm"
  },
  "ACG": {
    "name": "永修",
    "city": "九江",
    "pinyin": "yongxiu",
    "short": "yxi",
    "lon": 115.8108967,
    "lat": 29.0228881,
    "geo_source": "osm"
  },
  "ACI": {
    "name": "安次",
    "city": "廊坊",
    "pinyin": "anci",
    "short": "aci",
    "lon": 116.6911604,
    "lat": 39.2360911,
    "geo_source": "osm"
  },
  "ACP": {
    "name": "云彩岭",
    "city": "大同",
    "pinyin": "yuncailing",
    "short": "ycl",
    "lon": 114.3569258,
    "lat": 39.4476009,
    "geo_source": "osm"
  },
  "ACQ": {
    "name": "老城镇",
    "city": "澄迈",
    "pinyin": "laochengzhen",
    "short": "lcz",
    "lon": 110.1132089,
    "lat": 19.9338974,
    "geo_source": "osm"
  },
  "ACS": {
    "name": "永春",
    "city": "泉州",
    "pinyin": "yongchun",
    "short": "ych",
    "lon": 118.122548,
    "lat": 25.3332364,
    "geo_source": "osm"
  },
  "ADA": {
    "name": "安江东",
    "city": "怀化",
    "pinyin": "anjiangdong",
    "short": "ajd",
    "lon": 110.1574445,
    "lat": 27.3438287,
    "geo_source": "osm"
  },
  "ADF": {
    "name": "安阳东",
    "city": "安阳",
    "pinyin": "anyangdong",
    "short": "ayd",
    "lon": 114.4479583,
    "lat": 36.0841487,
    "geo_source": "osm"
  },
  "ADO": {
    "name": "安多",
    "city": "那曲",
    "pinyin": "anduo",
    "short": "adu",
    "lon": 91.6658261,
    "lat": 32.2522791,
    "geo_source": "osm"
  },
  "ADP": {
    "name": "安定",
    "city": "北京",
    "pinyin": "anding",
    "short": "adi",
    "lon": 116.4816523,
    "lat": 39.617375,
    "geo_source": "osm"
  },
  "ADS": {
    "name": "延平东",
    "city": "南平",
    "pinyin": "yanpingdong",
    "short": "ypd",
    "lon": 118.2098007,
    "lat": 26.6294247,
    "geo_source": "osm"
  },
  "ADX": {
    "name": "安达",
    "city": "绥化",
    "pinyin": "anda",
    "short": "ada",
    "lon": 125.3151766,
    "lat": 46.4003229,
    "geo_source": "osm"
  },
  "AEH": {
    "name": "盐城北",
    "city": "盐城",
    "pinyin": "yanchengbei",
    "short": "ycb",
    "lon": 120.0976829,
    "lat": 33.4501223,
    "geo_source": "osm"
  },
  "AEM": {
    "name": "羊者窝",
    "city": "曲靖",
    "pinyin": "yangzhewo",
    "short": "yzw",
    "lon": 104.2740009,
    "lat": 24.8339689,
    "geo_source": "osm"
  },
  "AEP": {
    "name": "岩会",
    "city": "阳泉",
    "pinyin": "yanhui",
    "short": "yhu",
    "lon": 113.73502,
    "lat": 37.87901,
    "geo_source": "osm"
  },
  "AEQ": {
    "name": "益阳",
    "city": "益阳",
    "pinyin": "yiyang",
    "short": "yya",
    "lon": 112.3363447,
    "lat": 28.5415819,
    "geo_source": "osm"
  },
  "AER": {
    "name": "阿克陶",
    "city": "阿图什",
    "pinyin": "aketao",
    "short": "akt",
    "lon": 75.9742422,
    "lat": 39.1674549,
    "geo_source": "osm"
  },
  "AEV": {
    "name": "安泽",
    "city": "临汾",
    "pinyin": "anze",
    "short": "aze",
    "lon": 112.2316861,
    "lat": 36.1828672,
    "geo_source": "osm"
  },
  "AFH": {
    "name": "盐城",
    "city": "盐城",
    "pinyin": "yancheng",
    "short": "ych",
    "lon": 120.1796099,
    "lat": 33.374672,
    "geo_source": "osm"
  },
  "AFP": {
    "name": "云居寺",
    "city": "北京",
    "pinyin": "yunjusi",
    "short": "yjs",
    "lon": 115.7934901,
    "lat": 39.6202628,
    "geo_source": "osm"
  },
  "AFW": {
    "name": "酉阳",
    "city": "酉阳",
    "pinyin": "youyang",
    "short": "yya",
    "lon": 108.9576347,
    "lat": 28.8115473,
    "geo_source": "osm"
  },
  "AGM": {
    "name": "野象谷",
    "city": "景洪",
    "pinyin": "yexianggu",
    "short": "yxg",
    "lon": 100.853781,
    "lat": 22.1145509,
    "geo_source": "osm"
  },
  "AGT": {
    "name": "安广",
    "city": "白城",
    "pinyin": "anguang",
    "short": "agu",
    "lon": 123.784031,
    "lat": 45.5670957,
    "geo_source": "osm"
  },
  "AGV": {
    "name": "阳高南",
    "city": "大同",
    "pinyin": "yanggaonan",
    "short": "ygn",
    "lon": 113.7936985,
    "lat": 40.3119724,
    "geo_source": "osm"
  },
  "AHP": {
    "name": "艾河",
    "city": "保定",
    "pinyin": "aihe",
    "short": "ahe",
    "lon": 114.541334,
    "lat": 39.3923229,
    "geo_source": "osm"
  },
  "AHQ": {
    "name": "四会",
    "city": "肇庆",
    "pinyin": "sihui",
    "short": "shu",
    "lon": 112.7493259,
    "lat": 23.2731227,
    "geo_source": "osm"
  },
  "AHX": {
    "name": "阿里河",
    "city": "呼伦贝尔",
    "pinyin": "alihe",
    "short": "alh",
    "lon": 123.7230268,
    "lat": 50.5784411,
    "geo_source": "osm"
  },
  "AIH": {
    "name": "阳澄湖",
    "city": "苏州",
    "pinyin": "yangchenghu",
    "short": "ych",
    "lon": 120.8573261,
    "lat": 31.3822528,
    "geo_source": "osm"
  },
  "AIM": {
    "name": "云县",
    "city": "临沧",
    "pinyin": "yunxian",
    "short": "yxi",
    "lon": 100.1264683,
    "lat": 24.4016727,
    "geo_source": "osm"
  },
  "AIP": {
    "name": "野三坡",
    "city": "保定",
    "pinyin": "yesanpo",
    "short": "ysp",
    "lon": 115.4481434,
    "lat": 39.6706326,
    "geo_source": "osm"
  },
  "AIU": {
    "name": "安庆西",
    "city": "安庆",
    "pinyin": "anqingxi",
    "short": "aqx",
    "lon": 116.8592916,
    "lat": 30.6751256,
    "geo_source": "osm"
  },
  "AJB": {
    "name": "安家",
    "city": "哈尔滨",
    "pinyin": "anjia",
    "short": "aji",
    "lon": 127.0602514,
    "lat": 45.0512826,
    "geo_source": "osm"
  },
  "AJH": {
    "name": "建湖",
    "city": "盐城",
    "pinyin": "jianhu",
    "short": "jhu",
    "lon": 119.7889593,
    "lat": 33.5079815,
    "geo_source": "osm"
  },
  "AJJ": {
    "name": "艾家村",
    "city": "吴忠",
    "pinyin": "aijiacun",
    "short": "ajc",
    "lon": 105.7723385,
    "lat": 37.1586771,
    "geo_source": "osm"
  },
  "AJM": {
    "name": "元江",
    "city": "元江",
    "pinyin": "yuanjiang",
    "short": "yji",
    "lon": 102.0064557,
    "lat": 23.7025746,
    "geo_source": "osm"
  },
  "AJP": {
    "name": "燕郊",
    "city": "廊坊",
    "pinyin": "yanjiao",
    "short": "yji",
    "lon": 116.8198143,
    "lat": 39.9410098,
    "geo_source": "osm"
  },
  "AJU": {
    "name": "安吉",
    "city": "湖州",
    "pinyin": "anji",
    "short": "aji",
    "lon": 119.6056045,
    "lat": 30.8182852,
    "geo_source": "osm"
  },
  "AJV": {
    "name": "永济北",
    "city": "运城",
    "pinyin": "yongjibei",
    "short": "yjb",
    "lon": 110.4192369,
    "lat": 35.0282991,
    "geo_source": "osm"
  },
  "AKH": {
    "name": "阜宁",
    "city": "盐城",
    "pinyin": "funing",
    "short": "fni",
    "lon": 119.6118444,
    "lat": 33.5963541,
    "geo_source": "osm"
  },
  "AKJ": {
    "name": "阿克塞",
    "city": "酒泉",
    "pinyin": "akesai",
    "short": "aks",
    "lon": 94.3690824,
    "lat": 39.6144744,
    "geo_source": "osm"
  },
  "AKR": {
    "name": "阿拉山口",
    "city": "博乐",
    "pinyin": "alashankou",
    "short": "alk",
    "lon": 82.5704564,
    "lat": 45.1702695,
    "geo_source": "osm"
  },
  "AKY": {
    "name": "安康",
    "city": "安康",
    "pinyin": "ankang",
    "short": "aka",
    "lon": 109.0123864,
    "lat": 32.7146275,
    "geo_source": "osm"
  },
  "ALD": {
    "name": "敖力布告",
    "city": "通辽",
    "pinyin": "aolibugao",
    "short": "alg",
    "lon": 123.0194789,
    "lat": 44.2432699,
    "geo_source": "osm"
  },
  "ALN": {
    "name": "安陆",
    "city": "孝感",
    "pinyin": "anlu",
    "short": "alu",
    "lon": 113.689821,
    "lat": 31.258876,
    "geo_source": "osm"
  },
  "ALY": {
    "name": "榆林",
    "city": "榆林",
    "pinyin": "yulin",
    "short": "yli",
    "lon": 109.7142389,
    "lat": 38.272957,
    "geo_source": "osm"
  },
  "AMH": {
    "name": "淮安南",
    "city": "淮安",
    "pinyin": "huaiannan",
    "short": "han",
    "lon": 119.0882996,
    "lat": 33.5923381,
    "geo_source": "osm"
  },
  "AMM": {
    "name": "元谋西",
    "city": "楚雄",
    "pinyin": "yuanmouxi",
    "short": "ymx",
    "lon": 101.8393217,
    "lat": 25.7115205,
    "geo_source": "osm"
  },
  "ANM": {
    "name": "云南驿",
    "city": "大理",
    "pinyin": "yunnanyi",
    "short": "yny",
    "lon": 100.7031313,
    "lat": 25.3823176,
    "geo_source": "osm"
  },
  "ANS": {
    "name": "安溪东",
    "city": "泉州",
    "pinyin": "anxidong",
    "short": "axd",
    "lon": 118.2503139,
    "lat": 25.0642205,
    "geo_source": "osm"
  },
  "AOH": {
    "name": "上海虹桥",
    "city": "上海",
    "pinyin": "shanghaihongqiao",
    "short": "shq",
    "lon": 121.3162004,
    "lat": 31.1959782,
    "geo_source": "osm"
  },
  "AOJ": {
    "name": "姚渡",
    "city": "广元",
    "pinyin": "yaodu",
    "short": "ydu",
    "lon": 105.4936838,
    "lat": 32.8057943,
    "geo_source": "osm"
  },
  "AOM": {
    "name": "阳宗",
    "city": "玉溪",
    "pinyin": "yangzong",
    "short": "yzo",
    "lon": 102.9783639,
    "lat": 24.8269155,
    "geo_source": "osm"
  },
  "AOP": {
    "name": "燕山",
    "city": "北京",
    "pinyin": "yanshan",
    "short": "ysh",
    "lon": 115.9521142,
    "lat": 39.7477611,
    "geo_source": "osm"
  },
  "AOQ": {
    "name": "永州",
    "city": "永州",
    "pinyin": "yongzhou",
    "short": "yzh",
    "lon": 111.5655253,
    "lat": 26.4576625,
    "geo_source": "osm"
  },
  "AOR": {
    "name": "阿拉尔",
    "city": "阿克苏",
    "pinyin": "alaer",
    "short": "ale",
    "lon": 81.2082061,
    "lat": 40.5537802,
    "geo_source": "osm"
  },
  "APH": {
    "name": "怀宁",
    "city": "安庆",
    "pinyin": "huaining",
    "short": "hni",
    "lon": 116.8148268,
    "lat": 30.7644409,
    "geo_source": "osm"
  },
  "APM": {
    "name": "永平县",
    "city": "永平",
    "pinyin": "yongpingxian",
    "short": "ypx",
    "lon": 99.5385961,
    "lat": 25.4077598,
    "geo_source": "osm"
  },
  "AQC": {
    "name": "阿巴嘎旗",
    "city": "锡林郭勒",
    "pinyin": "abagaqi",
    "short": "abq",
    "lon": 114.9922177,
    "lat": 44.0033713,
    "geo_source": "osm"
  },
  "AQH": {
    "name": "安庆",
    "city": "安庆",
    "pinyin": "anqing",
    "short": "aqi",
    "lon": 117.0600515,
    "lat": 30.5515037,
    "geo_source": "osm"
  },
  "AQK": {
    "name": "源迁",
    "city": "淄博",
    "pinyin": "yuanqian",
    "short": "yqi",
    "lon": 118.0234864,
    "lat": 36.4190637,
    "geo_source": "osm"
  },
  "AQP": {
    "name": "阳泉",
    "city": "阳泉",
    "pinyin": "yangquan",
    "short": "yqu",
    "lon": 113.5858557,
    "lat": 37.8561159,
    "geo_source": "osm"
  },
  "AQW": {
    "name": "施秉",
    "city": "凯里",
    "pinyin": "shibing",
    "short": "sbi",
    "lon": 108.1311576,
    "lat": 26.9210701,
    "geo_source": "osm"
  },
  "ARG": {
    "name": "安仁",
    "city": "郴州",
    "pinyin": "anren",
    "short": "are",
    "lon": 113.2512232,
    "lat": 26.7723408,
    "geo_source": "osm"
  },
  "ARH": {
    "name": "平阳",
    "city": "温州",
    "pinyin": "pingyang",
    "short": "pya",
    "lon": 120.5408442,
    "lat": 27.629223,
    "geo_source": "osm"
  },
  "ARM": {
    "name": "永仁",
    "city": "楚雄",
    "pinyin": "yongren",
    "short": "yre",
    "lon": 101.7091757,
    "lat": 26.0522042,
    "geo_source": "osm"
  },
  "ARP": {
    "name": "阳邑",
    "city": "邯郸",
    "pinyin": "yangyi",
    "short": "yyi",
    "lon": 113.8962936,
    "lat": 36.7377879,
    "geo_source": "osm"
  },
  "ARQ": {
    "name": "三水北",
    "city": "佛山",
    "pinyin": "sanshuibei",
    "short": "ssb",
    "lon": 112.9135497,
    "lat": 23.187404,
    "geo_source": "osm"
  },
  "ART": {
    "name": "阿尔山",
    "city": "兴安",
    "pinyin": "aershan",
    "short": "aes",
    "lon": 119.9412377,
    "lat": 47.1703671,
    "geo_source": "osm"
  },
  "ARW": {
    "name": "安德",
    "city": "成都",
    "pinyin": "ande",
    "short": "ade",
    "lon": 103.8100498,
    "lat": 30.8765324,
    "geo_source": "osm"
  },
  "ARX": {
    "name": "阿尔山北",
    "city": "兴安",
    "pinyin": "aershanbei",
    "short": "aeb",
    "lon": 119.8022207,
    "lat": 47.2814574,
    "geo_source": "osm"
  },
  "ASE": {
    "name": "安顺西",
    "city": "安顺",
    "pinyin": "anshunxi",
    "short": "asx",
    "lon": 105.8723451,
    "lat": 26.2021337,
    "geo_source": "osm"
  },
  "ASH": {
    "name": "安亭北",
    "city": "上海",
    "pinyin": "antingbei",
    "short": "atb",
    "lon": 121.1537318,
    "lat": 31.3163832,
    "geo_source": "osm"
  },
  "ASR": {
    "name": "阿克苏",
    "city": "阿克苏",
    "pinyin": "akesu",
    "short": "aks",
    "lon": 80.3045372,
    "lat": 41.1437883,
    "geo_source": "osm"
  },
  "AST": {
    "name": "鞍山",
    "city": "鞍山",
    "pinyin": "anshan",
    "short": "ash",
    "lon": 122.9804603,
    "lat": 41.1108084,
    "geo_source": "osm"
  },
  "ASW": {
    "name": "安顺",
    "city": "安顺",
    "pinyin": "anshun",
    "short": "ash",
    "lon": 105.939606,
    "lat": 26.232989,
    "geo_source": "osm"
  },
  "ASX": {
    "name": "阿龙山",
    "city": "呼伦贝尔",
    "pinyin": "alongshan",
    "short": "als",
    "lon": 121.8732768,
    "lat": 51.6858428,
    "geo_source": "osm"
  },
  "ASY": {
    "name": "永寿",
    "city": "咸阳",
    "pinyin": "yongshou",
    "short": "ysh",
    "lon": 108.1470704,
    "lat": 34.7071573,
    "geo_source": "osm"
  },
  "ATL": {
    "name": "安图",
    "city": "延边",
    "pinyin": "antu",
    "short": "atu",
    "lon": 128.9024116,
    "lat": 43.1134497,
    "geo_source": "osm"
  },
  "ATP": {
    "name": "玉田县",
    "city": "唐山",
    "pinyin": "yutianxian",
    "short": "ytx",
    "lon": 117.7286232,
    "lat": 39.8810654,
    "geo_source": "osm"
  },
  "ATR": {
    "name": "阿图什",
    "city": "阿图什",
    "pinyin": "atushi",
    "short": "ats",
    "lon": 76.219679,
    "lat": 39.719669,
    "geo_source": "osm"
  },
  "ATV": {
    "name": "安塘",
    "city": "忻州",
    "pinyin": "antang",
    "short": "ata",
    "lon": 111.701651,
    "lat": 38.815171,
    "geo_source": "osm"
  },
  "AUH": {
    "name": "淮安",
    "city": "淮安",
    "pinyin": "huaian",
    "short": "han",
    "lon": 119.0276463,
    "lat": 33.6501398,
    "geo_source": "osm"
  },
  "AUM": {
    "name": "玉舍",
    "city": "六盘水",
    "pinyin": "yushe",
    "short": "ysh",
    "lon": 104.8096744,
    "lat": 26.4727137,
    "geo_source": "osm"
  },
  "AUR": {
    "name": "阿勒泰",
    "city": "阿勒泰",
    "pinyin": "aletai",
    "short": "alt",
    "lon": 88.087107,
    "lat": 47.7175751,
    "geo_source": "osm"
  },
  "AUY": {
    "name": "永寿西",
    "city": "咸阳",
    "pinyin": "yongshouxi",
    "short": "ysx",
    "lon": 108.1132579,
    "lat": 34.6967699,
    "geo_source": "osm"
  },
  "AUZ": {
    "name": "安龙",
    "city": "兴义",
    "pinyin": "anlong",
    "short": "alo",
    "lon": 105.2405342,
    "lat": 25.0661807,
    "geo_source": "osm"
  },
  "AVM": {
    "name": "漾濞",
    "city": "漾濞",
    "pinyin": "yangbi",
    "short": "ybi",
    "lon": 99.9623101,
    "lat": 25.662821,
    "geo_source": "osm"
  },
  "AWR": {
    "name": "阿瓦提",
    "city": "阿克苏",
    "pinyin": "awati",
    "short": "awt",
    "lon": null,
    "lat": null,
    "geo_source": null
  },
  "AWW": {
    "name": "岳池",
    "city": "广安",
    "pinyin": "yuechi",
    "short": "ych",
    "lon": 106.4672936,
    "lat": 30.539551,
    "geo_source": "osm"
  },
  "AXJ": {
    "name": "宁县",
    "city": "庆阳",
    "pinyin": "ningxian",
    "short": "nxi",
    "lon": 107.9402554,
    "lat": 35.4847941,
    "geo_source": "osm"
  },
  "AXL": {
    "name": "安图西",
    "city": "延边",
    "pinyin": "antuxi",
    "short": "atx",
    "lon": 128.8880348,
    "lat": 43.1109582,
    "geo_source": "osm"
  },
  "AXM": {
    "name": "玉溪",
    "city": "玉溪",
    "pinyin": "yuxi",
    "short": "yxi",
    "lon": 102.5111152,
    "lat": 24.3421418,
    "geo_source": "osm"
  },
  "AXN": {
    "name": "安陆西",
    "city": "孝感",
    "pinyin": "anluxi",
    "short": "alx",
    "lon": 113.6470509,
    "lat": 31.2567844,
    "geo_source": "osm"
  },
  "AXS": {
    "name": "安溪",
    "city": "安溪",
    "pinyin": "anxi",
    "short": "axi",
    "lon": null,
    "lat": null,
    "geo_source": null
  },
  "AXT": {
    "name": "鞍山西",
    "city": "鞍山",
    "pinyin": "anshanxi",
    "short": "asx",
    "lon": 122.9089799,
    "lat": 41.1164154,
    "geo_source": "osm"
  },
  "AXU": {
    "name": "安亭西",
    "city": "上海",
    "pinyin": "antingxi",
    "short": "atx",
    "lon": 121.1524548,
    "lat": 31.3131188,
    "geo_source": "osm"
  },
  "AXV": {
    "name": "榆社西",
    "city": "晋中",
    "pinyin": "yushexi",
    "short": "ysx",
    "lon": null,
    "lat": null,
    "geo_source": null
  },
  "AYF": {
    "name": "安阳",
    "city": "安阳",
    "pinyin": "anyang",
    "short": "aya",
    "lon": 114.3343235,
    "lat": 36.104595,
    "geo_source": "osm"
  },
  "AYP": {
    "name": "阳泉东",
    "city": "阳泉",
    "pinyin": "yangquandong",
    "short": "yqd",
    "lon": 113.5951486,
    "lat": 37.8847507,
    "geo_source": "osm"
  },
  "AYS": {
    "name": "杨源",
    "city": "三明",
    "pinyin": "yangyuan",
    "short": "yyu",
    "lon": 116.7946028,
    "lat": 25.8467299,
    "geo_source": "osm"
  },
  "AYY": {
    "name": "安口窑",
    "city": "宝鸡",
    "pinyin": "ankouyao",
    "short": "aky",
    "lon": 106.8043076,
    "lat": 35.2362509,
    "geo_source": "osm"
  },
  "AZE": {
    "name": "安州",
    "city": "绵阳",
    "pinyin": "anzhou",
    "short": "azh",
    "lon": 125.6523328,
    "lat": 39.6238018,
    "geo_source": "osm"
  },
  "AZK": {
    "name": "燕家庄",
    "city": "泰安",
    "pinyin": "yanjiazhuang",
    "short": "yjz",
    "lon": 117.2701987,
    "lat": 36.1941831,
    "geo_source": "osm"
  },
  "AZM": {
    "name": "阿南庄",
    "city": "楚雄",
    "pinyin": "ananzhuang",
    "short": "anz",
    "lon": 101.8145845,
    "lat": 25.4455695,
    "geo_source": "osm"
  },
  "BAB": {
    "name": "北安",
    "city": "黑河",
    "pinyin": "beian",
    "short": "ban",
    "lon": 126.506639,
    "lat": 48.2326987,
    "geo_source": "osm"
  },
  "BAC": {
    "name": "巴彦高勒",
    "city": "巴彦淖尔",
    "pinyin": "bayangaole",
    "short": "byl",
    "lon": 107.016241,
    "lat": 40.332049,
    "geo_source": "osm"
  },
  "BAM": {
    "name": "保山",
    "city": "保山",
    "pinyin": "baoshan",
    "short": "bsh",
    "lon": 125.5535495,
    "lat": 38.9032509,
    "geo_source": "osm"
  },
  "BAP": {
    "name": "白涧",
    "city": "保定",
    "pinyin": "baijian",
    "short": "bji",
    "lon": 115.2835837,
    "lat": 39.6450835,
    "geo_source": "osm"
  },
  "BAT": {
    "name": "白狼",
    "city": "兴安",
    "pinyin": "bailang",
    "short": "bla",
    "lon": 120.0951037,
    "lat": 47.0472162,
    "geo_source": "osm"
  },
  "BAU": {
    "name": "宝应",
    "city": "扬州",
    "pinyin": "baoying",
    "short": "byi",
    "lon": 119.3827917,
    "lat": 33.2172373,
    "geo_source": "osm"
  },
  "BAY": {
    "name": "巴山",
    "city": "汉中",
    "pinyin": "bashan",
    "short": "bsh",
    "lon": 108.1120418,
    "lat": 32.2543832,
    "geo_source": "osm"
  },
  "BBA": {
    "name": "白云机场北",
    "city": "广州",
    "pinyin": "baiyunjichangbei",
    "short": "byb",
    "lon": 113.300523,
    "lat": 23.3975564,
    "geo_source": "osm"
  },
  "BBB": {
    "name": "宾西北",
    "city": "哈尔滨",
    "pinyin": "binxibei",
    "short": "bxb",
    "lon": 127.1433913,
    "lat": 45.790068,
    "geo_source": "osm"
  },
  "BBE": {
    "name": "八步",
    "city": "毕节",
    "pinyin": "babu",
    "short": "bbu",
    "lon": 105.7834967,
    "lat": 26.8344889,
    "geo_source": "osm"
  },
  "BBH": {
    "name": "蚌埠",
    "city": "蚌埠",
    "pinyin": "bengbu",
    "short": "bbu",
    "lon": 117.3718148,
    "lat": 32.9448281,
    "geo_source": "osm"
  },
  "BBM": {
    "name": "白鸡坡",
    "city": "六盘水",
    "pinyin": "baijipo",
    "short": "bjp",
    "lon": 104.7468982,
    "lat": 26.4304417,
    "geo_source": "osm"
  },
  "BBN": {
    "name": "巴东",
    "city": "恩施",
    "pinyin": "badong",
    "short": "bdo",
    "lon": 110.3764311,
    "lat": 31.1636161,
    "geo_source": "osm"
  },
  "BBY": {
    "name": "宝鸡南",
    "city": "宝鸡",
    "pinyin": "baojinan",
    "short": "bjn",
    "lon": 107.2278714,
    "lat": 34.3356447,
    "geo_source": "osm"
  },
  "BBZ": {
    "name": "博白",
    "city": "玉林",
    "pinyin": "bobai",
    "short": "bba",
    "lon": 109.989447,
    "lat": 22.2342429,
    "geo_source": "osm"
  },
  "BCD": {
    "name": "白音胡硕",
    "city": "兴安",
    "pinyin": "baiyinhushuo",
    "short": "bys",
    "lon": 121.4348111,
    "lat": 45.0131878,
    "geo_source": "osm"
  },
  "BCR": {
    "name": "巴楚",
    "city": "喀什",
    "pinyin": "bachu",
    "short": "bch",
    "lon": 78.5472465,
    "lat": 39.8357408,
    "geo_source": "osm"
  },
  "BCT": {
    "name": "白城",
    "city": "白城",
    "pinyin": "baicheng",
    "short": "bch",
    "lon": 122.8591067,
    "lat": 45.6156263,
    "geo_source": "osm"
  },
  "BCV": {
    "name": "白文东",
    "city": "吕梁",
    "pinyin": "baiwendong",
    "short": "bwd",
    "lon": 111.0903299,
    "lat": 38.1521543,
    "geo_source": "osm"
  },
  "BDA": {
    "name": "白云机场东",
    "city": "广州",
    "pinyin": "baiyunjichangdong",
    "short": "byd",
    "lon": 113.3147363,
    "lat": 23.3671276,
    "geo_source": "osm"
  },
  "BDC": {
    "name": "包头东",
    "city": "包头",
    "pinyin": "baotoudong",
    "short": "btd",
    "lon": 110.0186724,
    "lat": 40.5684798,
    "geo_source": "osm"
  },
  "BDE": {
    "name": "巴中东",
    "city": "巴中",
    "pinyin": "bazhongdong",
    "short": "bzd",
    "lon": 106.8700052,
    "lat": 31.8423656,
    "geo_source": "osm"
  },
  "BDH": {
    "name": "上虞",
    "city": "绍兴",
    "pinyin": "shangyu",
    "short": "syu",
    "lon": 120.8527582,
    "lat": 30.0041754,
    "geo_source": "osm"
  },
  "BDL": {
    "name": "白山东",
    "city": "白山",
    "pinyin": "baishandong",
    "short": "bsd",
    "lon": 126.4858931,
    "lat": 41.9856769,
    "geo_source": "osm"
  },
  "BDP": {
    "name": "保定",
    "city": "保定",
    "pinyin": "baoding",
    "short": "bdi",
    "lon": 115.473167,
    "lat": 38.8627726,
    "geo_source": "osm"
  },
  "BEC": {
    "name": "白云鄂博",
    "city": "包头",
    "pinyin": "baiyunebo",
    "short": "byb",
    "lon": 109.9517008,
    "lat": 41.771294,
    "geo_source": "osm"
  },
  "BEJ": {
    "name": "北滩",
    "city": "白银",
    "pinyin": "beitan",
    "short": "bta",
    "lon": 104.8651534,
    "lat": 37.0536951,
    "geo_source": "osm"
  },
  "BEL": {
    "name": "白河",
    "city": "延边",
    "pinyin": "baihe",
    "short": "bhe",
    "lon": null,
    "lat": null,
    "geo_source": null
  },
  "BEP": {
    "name": "北戴河",
    "city": "秦皇岛",
    "pinyin": "beidaihe",
    "short": "bdh",
    "lon": 119.4137242,
    "lat": 39.8495816,
    "geo_source": "osm"
  },
  "BER": {
    "name": "博乐",
    "city": "博乐",
    "pinyin": "bole",
    "short": "ble",
    "lon": 82.1109259,
    "lat": 44.9017497,
    "geo_source": "osm"
  },
  "BEY": {
    "name": "白河县",
    "city": "安康",
    "pinyin": "baihexian",
    "short": "bhx",
    "lon": 110.0928902,
    "lat": 32.8359676,
    "geo_source": "osm"
  },
  "BFF": {
    "name": "宝丰",
    "city": "平顶山",
    "pinyin": "baofeng",
    "short": "bfe",
    "lon": 113.0407876,
    "lat": 33.8568345,
    "geo_source": "osm"
  },
  "BFQ": {
    "name": "白马井",
    "city": "儋州",
    "pinyin": "baimajing",
    "short": "bmj",
    "lon": 109.2499509,
    "lat": 19.6604299,
    "geo_source": "osm"
  },
  "BFY": {
    "name": "彬州东",
    "city": "咸阳",
    "pinyin": "binzhoudong",
    "short": "bzd",
    "lon": 108.1201574,
    "lat": 35.0361792,
    "geo_source": "osm"
  },
  "BGM": {
    "name": "柏果",
    "city": "六盘水",
    "pinyin": "baiguo",
    "short": "bgu",
    "lon": 104.5040661,
    "lat": 26.0088284,
    "geo_source": "osm"
  },
  "BGT": {
    "name": "伯官",
    "city": "沈阳",
    "pinyin": "boguan",
    "short": "bgu",
    "lon": 123.710108,
    "lat": 41.8790387,
    "geo_source": "osm"
  },
  "BGU": {
    "name": "滨海港",
    "city": "盐城",
    "pinyin": "binhaigang",
    "short": "bhg",
    "lon": 119.8550207,
    "lat": 34.0599069,
    "geo_source": "osm"
  },
  "BGV": {
    "name": "白壁关",
    "city": "吕梁",
    "pinyin": "baibiguan",
    "short": "bbg",
    "lon": 111.70504,
    "lat": 37.13379,
    "geo_source": "osm"
  },
  "BGY": {
    "name": "白水县",
    "city": "渭南",
    "pinyin": "baishuixian",
    "short": "bsx",
    "lon": 109.6988374,
    "lat": 35.3533181,
    "geo_source": "osm"
  },
  "BHA": {
    "name": "白云湖",
    "city": "广州",
    "pinyin": "baiyunhu",
    "short": "byh",
    "lon": 113.2329367,
    "lat": 23.2275077,
    "geo_source": "osm"
  },
  "BHZ": {
    "name": "北海",
    "city": "北海",
    "pinyin": "beihai",
    "short": "bha",
    "lon": 109.1242504,
    "lat": 21.4542999,
    "geo_source": "osm"
  },
  "BID": {
    "name": "白音他拉",
    "city": "通辽",
    "pinyin": "baiyintala",
    "short": "byl",
    "lon": 120.8273513,
    "lat": 43.0710551,
    "geo_source": "osm"
  },
  "BII": {
    "name": "北辰",
    "city": "天津",
    "pinyin": "beichen",
    "short": "bch",
    "lon": 117.2706945,
    "lat": 39.271114,
    "geo_source": "osm"
  },
  "BIK": {
    "name": "滨州",
    "city": "滨州",
    "pinyin": "binzhou",
    "short": "bzh",
    "lon": 118.0122142,
    "lat": 37.4532549,
    "geo_source": "osm"
  },
  "BIV": {
    "name": "北营",
    "city": "太原",
    "pinyin": "beiying",
    "short": "byi",
    "lon": null,
    "lat": null,
    "geo_source": null
  },
  "BIY": {
    "name": "白河东",
    "city": "安康",
    "pinyin": "baihedong",
    "short": "bhd",
    "lon": 110.1092466,
    "lat": 32.8064721,
    "geo_source": "osm"
  },
  "BIZ": {
    "name": "百色",
    "city": "百色",
    "pinyin": "baise",
    "short": "bse",
    "lon": 106.6607247,
    "lat": 23.8881479,
    "geo_source": "osm"
  },
  "BJA": {
    "name": "北滘西",
    "city": "佛山",
    "pinyin": "beijiaoxi",
    "short": "bjx",
    "lon": 113.172897,
    "lat": 22.9551455,
    "geo_source": "osm"
  },
  "BJJ": {
    "name": "白芨沟",
    "city": "石嘴山",
    "pinyin": "baijigou",
    "short": "bjg",
    "lon": 106.13656,
    "lat": 39.11819,
    "geo_source": "osm"
  },
  "BJP": {
    "name": "北京",
    "city": "北京",
    "pinyin": "beijing",
    "short": "bji",
    "lon": 116.4210134,
    "lat": 39.9011168,
    "geo_source": "osm"
  },
  "BJQ": {
    "name": "深圳东",
    "city": "深圳",
    "pinyin": "shenzhendong",
    "short": "szd",
    "lon": 114.1144127,
    "lat": 22.604916,
    "geo_source": "osm"
  },
  "BJY": {
    "name": "宝鸡",
    "city": "宝鸡",
    "pinyin": "baoji",
    "short": "bji",
    "lon": 107.1481713,
    "lat": 34.3742434,
    "geo_source": "osm"
  },
  "BKB": {
    "name": "白奎堡",
    "city": "哈尔滨",
    "pinyin": "baikuipu",
    "short": "bkp",
    "lon": 126.9979096,
    "lat": 46.3695464,
    "geo_source": "osm"
  },
  "BKD": {
    "name": "保康",
    "city": "通辽",
    "pinyin": "baokang",
    "short": "bka",
    "lon": 123.3203737,
    "lat": 44.125773,
    "geo_source": "osm"
  },
  "BKN": {
    "name": "保康县",
    "city": "襄阳",
    "pinyin": "baokangxian",
    "short": "bkx",
    "lon": 111.2213373,
    "lat": 31.744993,
    "geo_source": "osm"
  },
  "BKX": {
    "name": "博克图",
    "city": "呼伦贝尔",
    "pinyin": "boketu",
    "short": "bkt",
    "lon": 121.9141347,
    "lat": 48.7520635,
    "geo_source": "osm"
  },
  "BLA": {
    "name": "博罗北",
    "city": "惠州",
    "pinyin": "boluobei",
    "short": "blb",
    "lon": 114.5572092,
    "lat": 23.4803874,
    "geo_source": "osm"
  },
  "BLB": {
    "name": "勃利",
    "city": "七台河",
    "pinyin": "boli",
    "short": "bli",
    "lon": 130.5515451,
    "lat": 45.7540423,
    "geo_source": "osm"
  },
  "BLQ": {
    "name": "碧江",
    "city": "佛山",
    "pinyin": "bijiang",
    "short": "bji",
    "lon": 113.2571916,
    "lat": 22.9524868,
    "geo_source": "osm"
  },
  "BLR": {
    "name": "布列开",
    "city": "伊宁",
    "pinyin": "buliekai",
    "short": "blk",
    "lon": 81.7923866,
    "lat": 43.898523,
    "geo_source": "osm"
  },
  "BLT": {
    "name": "八里甸子",
    "city": "本溪",
    "pinyin": "balidianzi",
    "short": "blz",
    "lon": 124.8875141,
    "lat": 41.2350267,
    "geo_source": "osm"
  },
  "BLX": {
    "name": "巴林",
    "city": "呼伦贝尔",
    "pinyin": "balin",
    "short": "bli",
    "lon": 122.3267963,
    "lat": 48.3131298,
    "geo_source": "osm"
  },
  "BMB": {
    "name": "八面通",
    "city": "牡丹江",
    "pinyin": "bamiantong",
    "short": "bmt",
    "lon": 130.5349935,
    "lat": 44.9247158,
    "geo_source": "osm"
  },
  "BMD": {
    "name": "八面城",
    "city": "铁岭",
    "pinyin": "bamiancheng",
    "short": "bmc",
    "lon": 124.0552662,
    "lat": 43.2068928,
    "geo_source": "osm"
  },
  "BME": {
    "name": "白马北",
    "city": "内江",
    "pinyin": "baimabei",
    "short": "bmb",
    "lon": 104.9911135,
    "lat": 29.5439199,
    "geo_source": "osm"
  },
  "BMH": {
    "name": "蚌埠南",
    "city": "蚌埠",
    "pinyin": "bengbunan",
    "short": "bbn",
    "lon": 117.4367868,
    "lat": 32.9036846,
    "geo_source": "osm"
  },
  "BMP": {
    "name": "保定东",
    "city": "保定",
    "pinyin": "baodingdong",
    "short": "bdd",
    "lon": 115.5957278,
    "lat": 38.8634576,
    "geo_source": "osm"
  },
  "BNA": {
    "name": "白云机场南",
    "city": "广州",
    "pinyin": "baiyunjichangnan",
    "short": "byn",
    "lon": 113.298076,
    "lat": 23.3857638,
    "geo_source": "osm"
  },
  "BNB": {
    "name": "宝林",
    "city": "牡丹江",
    "pinyin": "baolin",
    "short": "bli",
    "lon": 129.9700867,
    "lat": 45.0264776,
    "geo_source": "osm"
  },
  "BND": {
    "name": "宝龙山",
    "city": "通辽",
    "pinyin": "baolongshan",
    "short": "bls",
    "lon": 122.7345157,
    "lat": 44.0285486,
    "geo_source": "osm"
  },
  "BNE": {
    "name": "巴南",
    "city": "重庆",
    "pinyin": "banan",
    "short": "bna",
    "lon": 106.7518423,
    "lat": 29.39627,
    "geo_source": "osm"
  },
  "BNJ": {
    "name": "白银市",
    "city": "白银",
    "pinyin": "baiyinshi",
    "short": "bys",
    "lon": 104.1672095,
    "lat": 36.558415,
    "geo_source": "osm"
  },
  "BNM": {
    "name": "班猫箐",
    "city": "昆明",
    "pinyin": "banmaoqing",
    "short": "bmq",
    "lon": 103.1995552,
    "lat": 24.9332189,
    "geo_source": "osm"
  },
  "BNN": {
    "name": "野三关",
    "city": "恩施",
    "pinyin": "yesanguan",
    "short": "ysg",
    "lon": 110.3532436,
    "lat": 30.6653125,
    "geo_source": "osm"
  },
  "BNQ": {
    "name": "麓谷",
    "city": "长沙",
    "pinyin": "lugu",
    "short": "lgu",
    "lon": 112.8589094,
    "lat": 28.2519067,
    "geo_source": "osm"
  },
  "BNU": {
    "name": "亳州南",
    "city": "亳州",
    "pinyin": "bozhounan",
    "short": "bzn",
    "lon": 115.7930907,
    "lat": 33.796241,
    "geo_source": "osm"
  },
  "BOA": {
    "name": "博罗",
    "city": "惠州",
    "pinyin": "boluo",
    "short": "blu",
    "lon": 114.2035591,
    "lat": 23.1436482,
    "geo_source": "osm"
  },
  "BOD": {
    "name": "白音华南",
    "city": "兴安",
    "pinyin": "baiyinhuanan",
    "short": "byn",
    "lon": 118.4496311,
    "lat": 44.7690627,
    "geo_source": "osm"
  },
  "BOE": {
    "name": "毕节",
    "city": "毕节",
    "pinyin": "bijie",
    "short": "bji",
    "lon": 105.4157004,
    "lat": 27.2657729,
    "geo_source": "osm"
  },
  "BOI": {
    "name": "宝坻南",
    "city": "天津",
    "pinyin": "baodinan",
    "short": "bdn",
    "lon": 117.3684221,
    "lat": 39.5062152,
    "geo_source": "osm"
  },
  "BOP": {
    "name": "北京东",
    "city": "北京",
    "pinyin": "beijingdong",
    "short": "bjd",
    "lon": 116.478656,
    "lat": 39.901096,
    "geo_source": "osm"
  },
  "BOR": {
    "name": "博乐东",
    "city": "博乐",
    "pinyin": "boledong",
    "short": "bld",
    "lon": null,
    "lat": null,
    "geo_source": null
  },
  "BOZ": {
    "name": "北流",
    "city": "玉林",
    "pinyin": "beiliu",
    "short": "bli",
    "lon": 110.3174114,
    "lat": 22.7327674,
    "geo_source": "osm"
  },
  "BPM": {
    "name": "白沙坡",
    "city": "曲靖",
    "pinyin": "baishapo",
    "short": "bsp",
    "lon": 103.86608,
    "lat": 25.66054,
    "geo_source": "osm"
  },
  "BPP": {
    "name": "宝坻北",
    "city": "天津",
    "pinyin": "baodibei",
    "short": "bdb",
    "lon": 117.3292658,
    "lat": 39.7142648,
    "geo_source": "osm"
  },
  "BPT": {
    "name": "北票",
    "city": "朝阳",
    "pinyin": "beipiao",
    "short": "bpi",
    "lon": 120.7836055,
    "lat": 41.7664385,
    "geo_source": "osm"
  },
  "BQB": {
    "name": "宝泉岭",
    "city": "鹤岗",
    "pinyin": "baoquanling",
    "short": "bql",
    "lon": 130.5142008,
    "lat": 47.4275149,
    "geo_source": "osm"
  },
  "BQL": {
    "name": "白泉",
    "city": "辽源",
    "pinyin": "baiquan",
    "short": "bqu",
    "lon": 124.9955833,
    "lat": 42.9243937,
    "geo_source": "osm"
  },
  "BQP": {
    "name": "白旗",
    "city": "承德",
    "pinyin": "baiqi",
    "short": "bqi",
    "lon": 117.6657313,
    "lat": 41.1573153,
    "geo_source": "osm"
  },
  "BRP": {
    "name": "北马圈子",
    "city": "承德",
    "pinyin": "beimajuanzi",
    "short": "bmz",
    "lon": 117.5975884,
    "lat": 40.5194263,
    "geo_source": "osm"
  },
  "BRT": {
    "name": "北井子",
    "city": "丹东",
    "pinyin": "beijingzi",
    "short": "bjz",
    "lon": 123.8970414,
    "lat": 39.8969544,
    "geo_source": "osm"
  },
  "BRZ": {
    "name": "百浪",
    "city": "南宁",
    "pinyin": "bailang",
    "short": "bla",
    "lon": 108.4524633,
    "lat": 22.368064,
    "geo_source": "osm"
  },
  "BSB": {
    "name": "笔架山",
    "city": "双鸭山",
    "pinyin": "bijiashan",
    "short": "bjs",
    "lon": 130.9959504,
    "lat": 46.7854556,
    "geo_source": "osm"
  },
  "BSN": {
    "name": "白沙铺",
    "city": "黄石",
    "pinyin": "baishapu",
    "short": "bsp",
    "lon": 115.069928,
    "lat": 29.9607309,
    "geo_source": "osm"
  },
  "BSY": {
    "name": "白水江",
    "city": "汉中",
    "pinyin": "baishuijiang",
    "short": "bsj",
    "lon": 106.0783516,
    "lat": 33.5754243,
    "geo_source": "osm"
  },
  "BTC": {
    "name": "包头",
    "city": "包头",
    "pinyin": "baotou",
    "short": "bto",
    "lon": 109.830185,
    "lat": 40.6040793,
    "geo_source": "osm"
  },
  "BTD": {
    "name": "八角台",
    "city": "锦州",
    "pinyin": "bajiaotai",
    "short": "bjt",
    "lon": 121.2442692,
    "lat": 41.2859592,
    "geo_source": "osm"
  },
  "BTE": {
    "name": "保田",
    "city": "六盘水",
    "pinyin": "baotian",
    "short": "bti",
    "lon": 104.7005468,
    "lat": 25.3799611,
    "geo_source": "osm"
  },
  "BTQ": {
    "name": "坂田",
    "city": "深圳",
    "pinyin": "bantian",
    "short": "bti",
    "lon": 114.0482652,
    "lat": 22.6274146,
    "geo_source": "osm"
  },
  "BUB": {
    "name": "宝清",
    "city": "双鸭山",
    "pinyin": "baoqing",
    "short": "bqi",
    "lon": 132.1935151,
    "lat": 46.3517158,
    "geo_source": "osm"
  },
  "BUI": {
    "name": "北京通州",
    "city": "北京",
    "pinyin": "beijingtongzhou",
    "short": "bjz",
    "lon": 116.7001463,
    "lat": 39.9079706,
    "geo_source": "osm"
  },
  "BUM": {
    "name": "白水镇",
    "city": "曲靖",
    "pinyin": "baishuizhen",
    "short": "bsz",
    "lon": 104.0017136,
    "lat": 25.6627928,
    "geo_source": "osm"
  },
  "BUP": {
    "name": "板城",
    "city": "保定",
    "pinyin": "bancheng",
    "short": "bch",
    "lon": 115.2492051,
    "lat": 39.6125672,
    "geo_source": "osm"
  },
  "BVE": {
    "name": "白云北",
    "city": "贵阳",
    "pinyin": "baiyunbei",
    "short": "byb",
    "lon": 106.6591383,
    "lat": 26.7066682,
    "geo_source": "osm"
  },
  "BVJ": {
    "name": "白银南",
    "city": "白银",
    "pinyin": "baiyinnan",
    "short": "byn",
    "lon": 104.1791761,
    "lat": 36.4784564,
    "geo_source": "osm"
  },
  "BVP": {
    "name": "北宅",
    "city": "北京",
    "pinyin": "beizhai",
    "short": "bzh",
    "lon": 116.5667631,
    "lat": 40.3398357,
    "geo_source": "osm"
  },
  "BVT": {
    "name": "本溪新城",
    "city": "本溪",
    "pinyin": "benxixincheng",
    "short": "bxc",
    "lon": 123.6720993,
    "lat": 41.4801927,
    "geo_source": "osm"
  },
  "BWH": {
    "name": "宝华山",
    "city": "镇江",
    "pinyin": "baohuashan",
    "short": "bhs",
    "lon": 119.0501576,
    "lat": 32.1515717,
    "geo_source": "osm"
  },
  "BWQ": {
    "name": "博鳌",
    "city": "琼海",
    "pinyin": "boao",
    "short": "bao",
    "lon": 110.4828528,
    "lat": 19.1380226,
    "geo_source": "osm"
  },
  "BWT": {
    "name": "巴图营",
    "city": "朝阳",
    "pinyin": "batuying",
    "short": "bty",
    "lon": 120.7212938,
    "lat": 41.4684212,
    "geo_source": "osm"
  },
  "BWW": {
    "name": "步行街",
    "city": "成都",
    "pinyin": "buxingjie",
    "short": "bxj",
    "lon": 103.9381327,
    "lat": 30.9613561,
    "geo_source": "osm"
  },
  "BXE": {
    "name": "白云西",
    "city": "贵阳",
    "pinyin": "baiyunxi",
    "short": "byx",
    "lon": 106.6093969,
    "lat": 26.7039158,
    "geo_source": "osm"
  },
  "BXJ": {
    "name": "白银西",
    "city": "白银",
    "pinyin": "baiyinxi",
    "short": "byx",
    "lon": 104.0961987,
    "lat": 36.5496042,
    "geo_source": "osm"
  },
  "BXK": {
    "name": "博兴",
    "city": "滨州",
    "pinyin": "boxing",
    "short": "bxi",
    "lon": 118.136495,
    "lat": 37.136668,
    "geo_source": "osm"
  },
  "BXP": {
    "name": "北京西",
    "city": "北京",
    "pinyin": "beijingxi",
    "short": "bjx",
    "lon": 116.3151027,
    "lat": 39.8936695,
    "geo_source": "osm"
  },
  "BXR": {
    "name": "北屯市",
    "city": "阿勒泰",
    "pinyin": "beitunshi",
    "short": "bts",
    "lon": 87.7565199,
    "lat": 47.3229415,
    "geo_source": "osm"
  },
  "BXT": {
    "name": "本溪",
    "city": "本溪",
    "pinyin": "benxi",
    "short": "bxi",
    "lon": 123.7520418,
    "lat": 41.2933368,
    "geo_source": "osm"
  },
  "BXY": {
    "name": "彬州",
    "city": "咸阳",
    "pinyin": "binzhou",
    "short": "bzh",
    "lon": 108.0996494,
    "lat": 35.0462773,
    "geo_source": "osm"
  },
  "BYB": {
    "name": "背荫河",
    "city": "哈尔滨",
    "pinyin": "beiyinhe",
    "short": "byh",
    "lon": 126.9916568,
    "lat": 45.1678703,
    "geo_source": "osm"
  },
  "BYC": {
    "name": "白音察干",
    "city": "乌兰察布",
    "pinyin": "baiyinchagan",
    "short": "byg",
    "lon": 113.1778913,
    "lat": 41.45356,
    "geo_source": "osm"
  },
  "BYP": {
    "name": "北屯",
    "city": "保定",
    "pinyin": "beitun",
    "short": "btu",
    "lon": 114.7640151,
    "lat": 39.3568901,
    "geo_source": "osm"
  },
  "BYT": {
    "name": "鲅鱼圈",
    "city": "营口",
    "pinyin": "bayuquan",
    "short": "byq",
    "lon": 122.0898847,
    "lat": 40.1865964,
    "geo_source": "osm"
  },
  "BZB": {
    "name": "宾州",
    "city": "哈尔滨",
    "pinyin": "binzhou",
    "short": "bzh",
    "lon": 127.4533796,
    "lat": 45.7729786,
    "geo_source": "osm"
  },
  "BZE": {
    "name": "巴中西",
    "city": "巴中",
    "pinyin": "bazhongxi",
    "short": "bzx",
    "lon": 106.6522712,
    "lat": 31.7661835,
    "geo_source": "osm"
  },
  "BZH": {
    "name": "亳州",
    "city": "亳州",
    "pinyin": "bozhou",
    "short": "bzh",
    "lon": 115.7921916,
    "lat": 33.8493274,
    "geo_source": "osm"
  },
  "BZI": {
    "name": "宝坻",
    "city": "天津",
    "pinyin": "baodi",
    "short": "bdi",
    "lon": 117.2768641,
    "lat": 39.6632222,
    "geo_source": "osm"
  },
  "BZP": {
    "name": "泊头",
    "city": "沧州",
    "pinyin": "botou",
    "short": "bto",
    "lon": 116.5812492,
    "lat": 38.0608098,
    "geo_source": "osm"
  },
  "CAA": {
    "name": "长安",
    "city": "东莞",
    "pinyin": "changan",
    "short": "can",
    "lon": 113.7587674,
    "lat": 22.7818506,
    "geo_source": "osm"
  },
  "CAF": {
    "name": "长治南",
    "city": "长治",
    "pinyin": "changzhinan",
    "short": "czn",
    "lon": 113.1005399,
    "lat": 36.0926232,
    "geo_source": "osm"
  },
  "CAJ": {
    "name": "陈官营",
    "city": "兰州",
    "pinyin": "chenguanying",
    "short": "cgy",
    "lon": 103.6580068,
    "lat": 36.086945,
    "geo_source": "osm"
  },
  "CAM": {
    "name": "岔江",
    "city": "兴义",
    "pinyin": "chajiang",
    "short": "cji",
    "lon": 104.6504453,
    "lat": 25.0637322,
    "geo_source": "osm"
  },
  "CAS": {
    "name": "长乐",
    "city": "福州",
    "pinyin": "changle",
    "short": "cle",
    "lon": 119.4806639,
    "lat": 25.9270606,
    "geo_source": "osm"
  },
  "CAU": {
    "name": "常熟",
    "city": "苏州",
    "pinyin": "changshu",
    "short": "csh",
    "lon": 120.7761351,
    "lat": 31.699229,
    "geo_source": "osm"
  },
  "CAX": {
    "name": "嵯岗",
    "city": "呼伦贝尔",
    "pinyin": "cuogang",
    "short": "cga",
    "lon": 118.0911965,
    "lat": 49.2550299,
    "geo_source": "osm"
  },
  "CAY": {
    "name": "引镇",
    "city": "西安",
    "pinyin": "yinzhen",
    "short": "yzh",
    "lon": 109.0962926,
    "lat": 34.0941563,
    "geo_source": "osm"
  },
  "CBC": {
    "name": "查布嘎",
    "city": "赤峰",
    "pinyin": "chabuga",
    "short": "cbg",
    "lon": 120.062971,
    "lat": 43.8554283,
    "geo_source": "osm"
  },
  "CBF": {
    "name": "长治北",
    "city": "长治",
    "pinyin": "changzhibei",
    "short": "czb",
    "lon": 113.1185346,
    "lat": 36.3085869,
    "geo_source": "osm"
  },
  "CBH": {
    "name": "长兴",
    "city": "湖州",
    "pinyin": "changxing",
    "short": "cxi",
    "lon": 119.9706148,
    "lat": 31.0440015,
    "geo_source": "osm"
  },
  "CBN": {
    "name": "赤壁",
    "city": "咸宁",
    "pinyin": "chibi",
    "short": "cbi",
    "lon": 113.9247365,
    "lat": 29.7239396,
    "geo_source": "osm"
  },
  "CBP": {
    "name": "沧州西",
    "city": "沧州",
    "pinyin": "cangzhouxi",
    "short": "czx",
    "lon": 116.7619627,
    "lat": 38.3062792,
    "geo_source": "osm"
  },
  "CBQ": {
    "name": "潮汕",
    "city": "潮州",
    "pinyin": "chaoshan",
    "short": "csh",
    "lon": 116.5828304,
    "lat": 23.5424042,
    "geo_source": "osm"
  },
  "CBY": {
    "name": "城固北",
    "city": "汉中",
    "pinyin": "chenggubei",
    "short": "cgb",
    "lon": 107.3014503,
    "lat": 33.1859761,
    "geo_source": "osm"
  },
  "CCP": {
    "name": "承德东",
    "city": "承德",
    "pinyin": "chengdedong",
    "short": "cdd",
    "lon": 117.9838793,
    "lat": 40.8876393,
    "geo_source": "osm"
  },
  "CCT": {
    "name": "长春",
    "city": "长春",
    "pinyin": "changchun",
    "short": "cch",
    "lon": 125.3177297,
    "lat": 43.9088384,
    "geo_source": "osm"
  },
  "CDB": {
    "name": "长汀镇",
    "city": "牡丹江",
    "pinyin": "changtingzhen",
    "short": "ctz",
    "lon": 128.9316068,
    "lat": 44.4635889,
    "geo_source": "osm"
  },
  "CDG": {
    "name": "茶陵",
    "city": "株洲",
    "pinyin": "chaling",
    "short": "cli",
    "lon": 113.5443878,
    "lat": 26.8139385,
    "geo_source": "osm"
  },
  "CDP": {
    "name": "承德",
    "city": "承德",
    "pinyin": "chengde",
    "short": "cde",
    "lon": 117.9483739,
    "lat": 40.9639743,
    "geo_source": "osm"
  },
  "CDW": {
    "name": "成都",
    "city": "成都",
    "pinyin": "chengdu",
    "short": "cdu",
    "lon": 104.0708278,
    "lat": 30.7001324,
    "geo_source": "osm"
  },
  "CEF": {
    "name": "长葛",
    "city": "许昌",
    "pinyin": "changge",
    "short": "cge",
    "lon": 113.7731665,
    "lat": 34.215148,
    "geo_source": "osm"
  },
  "CEH": {
    "name": "苍南",
    "city": "温州",
    "pinyin": "cangnan",
    "short": "cna",
    "lon": 120.40836,
    "lat": 27.5313093,
    "geo_source": "osm"
  },
  "CEJ": {
    "name": "长城",
    "city": "白银",
    "pinyin": "changcheng",
    "short": "cch",
    "lon": 104.1096238,
    "lat": 37.2891608,
    "geo_source": "osm"
  },
  "CEK": {
    "name": "城阳",
    "city": "青岛",
    "pinyin": "chengyang",
    "short": "cya",
    "lon": 120.359669,
    "lat": 36.2993119,
    "geo_source": "osm"
  },
  "CES": {
    "name": "长汀",
    "city": "长汀",
    "pinyin": "changting",
    "short": "cti",
    "lon": 116.3393861,
    "lat": 25.8318013,
    "geo_source": "osm"
  },
  "CET": {
    "name": "长春南",
    "city": "长春",
    "pinyin": "changchunnan",
    "short": "ccn",
    "lon": 125.2527226,
    "lat": 43.8493406,
    "geo_source": "osm"
  },
  "CEX": {
    "name": "创业村",
    "city": "大庆",
    "pinyin": "chuangyecun",
    "short": "cyc",
    "lon": null,
    "lat": null,
    "geo_source": null
  },
  "CFD": {
    "name": "赤峰南",
    "city": "赤峰",
    "pinyin": "chifengnan",
    "short": "cfn",
    "lon": 118.9536202,
    "lat": 42.2548316,
    "geo_source": "osm"
  },
  "CFH": {
    "name": "长兴南",
    "city": "湖州",
    "pinyin": "changxingnan",
    "short": "cxn",
    "lon": 119.8995539,
    "lat": 30.9927335,
    "geo_source": "osm"
  },
  "CFP": {
    "name": "曹子里",
    "city": "天津",
    "pinyin": "caozili",
    "short": "czl",
    "lon": 117.1319966,
    "lat": 39.4095353,
    "geo_source": "osm"
  },
  "CGF": {
    "name": "长葛北",
    "city": "许昌",
    "pinyin": "changgebei",
    "short": "cgb",
    "lon": 113.7288106,
    "lat": 34.2524027,
    "geo_source": "osm"
  },
  "CGT": {
    "name": "柴岗",
    "city": "长春",
    "pinyin": "chaigang",
    "short": "cga",
    "lon": null,
    "lat": null,
    "geo_source": null
  },
  "CGV": {
    "name": "柴沟堡",
    "city": "张家口",
    "pinyin": "chaigoubu",
    "short": "cgb",
    "lon": 114.4093067,
    "lat": 40.6695684,
    "geo_source": "osm"
  },
  "CGY": {
    "name": "城固",
    "city": "汉中",
    "pinyin": "chenggu",
    "short": "cgu",
    "lon": 107.3186051,
    "lat": 33.1403047,
    "geo_source": "osm"
  },
  "CHA": {
    "name": "潮南",
    "city": "汕头",
    "pinyin": "chaonan",
    "short": "cna",
    "lon": 116.5278279,
    "lat": 23.1362514,
    "geo_source": "osm"
  },
  "CHB": {
    "name": "柴河",
    "city": "牡丹江",
    "pinyin": "chaihe",
    "short": "che",
    "lon": 129.680023,
    "lat": 44.7653949,
    "geo_source": "osm"
  },
  "CHK": {
    "name": "茌平",
    "city": "聊城",
    "pinyin": "chiping",
    "short": "cpi",
    "lon": 116.2373954,
    "lat": 36.6121905,
    "geo_source": "osm"
  },
  "CHP": {
    "name": "崔黄口",
    "city": "天津",
    "pinyin": "cuihuangkou",
    "short": "chk",
    "lon": 117.194612,
    "lat": 39.519784,
    "geo_source": "osm"
  },
  "CHZ": {
    "name": "册亨",
    "city": "兴义",
    "pinyin": "ceheng",
    "short": "che",
    "lon": 105.5720839,
    "lat": 24.9175595,
    "geo_source": "osm"
  },
  "CIA": {
    "name": "城西",
    "city": "海口",
    "pinyin": "chengxi",
    "short": "cxi",
    "lon": 110.3276038,
    "lat": 19.9980792,
    "geo_source": "osm"
  },
  "CID": {
    "name": "赤峰",
    "city": "赤峰",
    "pinyin": "chifeng",
    "short": "cfe",
    "lon": 118.8958844,
    "lat": 42.2738113,
    "geo_source": "osm"
  },
  "CIH": {
    "name": "巢湖",
    "city": "合肥",
    "pinyin": "chaohu",
    "short": "chu",
    "lon": 117.8853872,
    "lat": 31.6167384,
    "geo_source": "osm"
  },
  "CIN": {
    "name": "赤壁北",
    "city": "咸宁",
    "pinyin": "chibibei",
    "short": "cbb",
    "lon": 113.8947876,
    "lat": 29.7393548,
    "geo_source": "osm"
  },
  "CIP": {
    "name": "磁县",
    "city": "邯郸",
    "pinyin": "cixian",
    "short": "cxi",
    "lon": 114.3660941,
    "lat": 36.360112,
    "geo_source": "osm"
  },
  "CIS": {
    "name": "长乐东",
    "city": "福州",
    "pinyin": "changledong",
    "short": "cld",
    "lon": 119.5531476,
    "lat": 25.8592139,
    "geo_source": "osm"
  },
  "CJT": {
    "name": "蔡家沟",
    "city": "松原",
    "pinyin": "caijiagou",
    "short": "cjg",
    "lon": 126.1314149,
    "lat": 45.1181992,
    "geo_source": "osm"
  },
  "CJX": {
    "name": "成吉思汗",
    "city": "呼伦贝尔",
    "pinyin": "chengjisihan",
    "short": "cjh",
    "lon": 122.8330727,
    "lat": 47.7466737,
    "geo_source": "osm"
  },
  "CJY": {
    "name": "蔡家坡",
    "city": "宝鸡",
    "pinyin": "caijiapo",
    "short": "cjp",
    "lon": 107.59363,
    "lat": 34.3226904,
    "geo_source": "osm"
  },
  "CKQ": {
    "name": "潮州",
    "city": "潮州",
    "pinyin": "chaozhou",
    "short": "czh",
    "lon": 120.5360618,
    "lat": 22.5499793,
    "geo_source": "osm"
  },
  "CKT": {
    "name": "草河口",
    "city": "本溪",
    "pinyin": "caohekou",
    "short": "chk",
    "lon": 123.9052727,
    "lat": 40.8763767,
    "geo_source": "osm"
  },
  "CLA": {
    "name": "长流",
    "city": "海口",
    "pinyin": "changliu",
    "short": "cli",
    "lon": 110.2021463,
    "lat": 19.9939208,
    "geo_source": "osm"
  },
  "CLK": {
    "name": "昌乐",
    "city": "潍坊",
    "pinyin": "changle",
    "short": "cle",
    "lon": 118.8334153,
    "lat": 36.7104569,
    "geo_source": "osm"
  },
  "CLP": {
    "name": "昌黎",
    "city": "秦皇岛",
    "pinyin": "changli",
    "short": "cli",
    "lon": 119.16145,
    "lat": 39.702907,
    "geo_source": "osm"
  },
  "CLR": {
    "name": "策勒",
    "city": "和田",
    "pinyin": "cele",
    "short": "cle",
    "lon": 80.831877,
    "lat": 36.9731411,
    "geo_source": "osm"
  },
  "CLT": {
    "name": "长岭子",
    "city": "大连",
    "pinyin": "changlingzi",
    "short": "clz",
    "lon": 121.3155265,
    "lat": 38.9363156,
    "geo_source": "osm"
  },
  "CMB": {
    "name": "晨明",
    "city": "伊春",
    "pinyin": "chenming",
    "short": "cmi",
    "lon": 129.4814677,
    "lat": 46.9729825,
    "geo_source": "osm"
  },
  "CMQ": {
    "name": "潮安",
    "city": "潮州",
    "pinyin": "chaoan",
    "short": "can",
    "lon": 116.6917309,
    "lat": 23.4763101,
    "geo_source": "osm"
  },
  "CMW": {
    "name": "成都西",
    "city": "成都",
    "pinyin": "chengduxi",
    "short": "cdx",
    "lon": 103.9775041,
    "lat": 30.6879152,
    "geo_source": "osm"
  },
  "CNE": {
    "name": "长宁",
    "city": "宜宾",
    "pinyin": "changning",
    "short": "cni",
    "lon": 104.9265106,
    "lat": 28.6000513,
    "geo_source": "osm"
  },
  "CNG": {
    "name": "茶陵南",
    "city": "株洲",
    "pinyin": "chalingnan",
    "short": "cln",
    "lon": 113.5195159,
    "lat": 26.7411061,
    "geo_source": "osm"
  },
  "CNJ": {
    "name": "长农",
    "city": "中卫",
    "pinyin": "changnong",
    "short": "cno",
    "lon": 105.6971225,
    "lat": 37.2501425,
    "geo_source": "osm"
  },
  "CNK": {
    "name": "长清",
    "city": "济南",
    "pinyin": "changqing",
    "short": "cqi",
    "lon": 116.7267584,
    "lat": 36.5654293,
    "geo_source": "osm"
  },
  "CNQ": {
    "name": "潮阳",
    "city": "汕头",
    "pinyin": "chaoyang",
    "short": "cya",
    "lon": 116.4173818,
    "lat": 23.3833607,
    "geo_source": "osm"
  },
  "CNS": {
    "name": "长汀南",
    "city": "长汀",
    "pinyin": "changtingnan",
    "short": "ctn",
    "lon": 116.3527953,
    "lat": 25.7692988,
    "geo_source": "osm"
  },
  "CNW": {
    "name": "成都南",
    "city": "成都",
    "pinyin": "chengdunan",
    "short": "cdn",
    "lon": 104.066049,
    "lat": 30.6090447,
    "geo_source": "osm"
  },
  "CNZ": {
    "name": "岑溪",
    "city": "梧州",
    "pinyin": "cenxi",
    "short": "cxi",
    "lon": 110.9435892,
    "lat": 22.9063507,
    "geo_source": "osm"
  },
  "COE": {
    "name": "重庆东",
    "city": "重庆",
    "pinyin": "chongqingdong",
    "short": "cqd",
    "lon": 106.669173,
    "lat": 29.4871069,
    "geo_source": "osm"
  },
  "COH": {
    "name": "合肥北城",
    "city": "合肥",
    "pinyin": "hefeibeicheng",
    "short": "hfc",
    "lon": 117.2466999,
    "lat": 32.0653535,
    "geo_source": "osm"
  },
  "COK": {
    "name": "兰陵北",
    "city": "临沂",
    "pinyin": "lanlingbei",
    "short": "llb",
    "lon": 118.0065469,
    "lat": 34.8967871,
    "geo_source": "osm"
  },
  "CON": {
    "name": "蔡山",
    "city": "黄冈",
    "pinyin": "caishan",
    "short": "csh",
    "lon": 115.787838,
    "lat": 29.8934371,
    "geo_source": "osm"
  },
  "COP": {
    "name": "沧州",
    "city": "沧州",
    "pinyin": "cangzhou",
    "short": "czh",
    "lon": 116.872441,
    "lat": 38.3089457,
    "geo_source": "osm"
  },
  "COW": {
    "name": "长寿北",
    "city": "长寿",
    "pinyin": "changshoubei",
    "short": "csb",
    "lon": 107.0700824,
    "lat": 29.8832298,
    "geo_source": "osm"
  },
  "COZ": {
    "name": "崇左南",
    "city": "崇左",
    "pinyin": "chongzuonan",
    "short": "czn",
    "lon": 107.3910844,
    "lat": 22.3574907,
    "geo_source": "osm"
  },
  "CPK": {
    "name": "茌平南",
    "city": "聊城",
    "pinyin": "chipingnan",
    "short": "cpn",
    "lon": 116.22777,
    "lat": 36.5280099,
    "geo_source": "osm"
  },
  "CPM": {
    "name": "长坡岭",
    "city": "曲靖",
    "pinyin": "changpoling",
    "short": "cpl",
    "lon": 103.9161501,
    "lat": 24.8412221,
    "geo_source": "osm"
  },
  "CPP": {
    "name": "昌平",
    "city": "北京",
    "pinyin": "changping",
    "short": "cpi",
    "lon": 116.1882919,
    "lat": 40.1887146,
    "geo_source": "osm"
  },
  "CPQ": {
    "name": "岑村",
    "city": "广州",
    "pinyin": "cencun",
    "short": "ccu",
    "lon": 113.3768085,
    "lat": 23.1613546,
    "geo_source": "osm"
  },
  "CPT": {
    "name": "昌图西",
    "city": "铁岭",
    "pinyin": "changtuxi",
    "short": "ctx",
    "lon": 124.0605836,
    "lat": 42.7755118,
    "geo_source": "osm"
  },
  "CQB": {
    "name": "辰清",
    "city": "黑河",
    "pinyin": "chenqing",
    "short": "cqi",
    "lon": 127.2309137,
    "lat": 49.1410438,
    "geo_source": "osm"
  },
  "CQE": {
    "name": "长箐",
    "city": "六盘水",
    "pinyin": "changqing",
    "short": "cqi",
    "lon": 105.271149,
    "lat": 26.3174138,
    "geo_source": "osm"
  },
  "CQJ": {
    "name": "长庆桥",
    "city": "庆阳",
    "pinyin": "changqingqiao",
    "short": "cqq",
    "lon": 107.7476153,
    "lat": 35.3146983,
    "geo_source": "osm"
  },
  "CQQ": {
    "name": "春湾",
    "city": "阳江",
    "pinyin": "chunwan",
    "short": "cwa",
    "lon": 111.9438153,
    "lat": 22.460293,
    "geo_source": "osm"
  },
  "CQW": {
    "name": "重庆",
    "city": "重庆",
    "pinyin": "chongqing",
    "short": "cqi",
    "lon": 106.5415811,
    "lat": 29.5515144,
    "geo_source": "osm"
  },
  "CRG": {
    "name": "崇仁",
    "city": "崇仁",
    "pinyin": "chongren",
    "short": "cre",
    "lon": 116.0537362,
    "lat": 27.7771871,
    "geo_source": "osm"
  },
  "CRK": {
    "name": "昌邑",
    "city": "潍坊",
    "pinyin": "changyi",
    "short": "cyi",
    "lon": 119.4574384,
    "lat": 36.7955169,
    "geo_source": "osm"
  },
  "CRP": {
    "name": "磁西",
    "city": "邯郸",
    "pinyin": "cixi",
    "short": "cxi",
    "lon": null,
    "lat": null,
    "geo_source": null
  },
  "CRT": {
    "name": "长春西",
    "city": "长春",
    "pinyin": "changchunxi",
    "short": "ccx",
    "lon": 125.1939041,
    "lat": 43.8749384,
    "geo_source": "osm"
  },
  "CRW": {
    "name": "重庆南",
    "city": "重庆",
    "pinyin": "chongqingnan",
    "short": "cqn",
    "lon": 106.5358022,
    "lat": 29.4988502,
    "geo_source": "osm"
  },
  "CSB": {
    "name": "楚山",
    "city": "牡丹江",
    "pinyin": "chushan",
    "short": "csh",
    "lon": 130.0211398,
    "lat": 45.1169494,
    "geo_source": "osm"
  },
  "CSC": {
    "name": "察素齐",
    "city": "呼和浩特",
    "pinyin": "chasuqi",
    "short": "csq",
    "lon": 111.1194302,
    "lat": 40.7035669,
    "geo_source": "osm"
  },
  "CSE": {
    "name": "长寿湖",
    "city": "长寿",
    "pinyin": "changshouhu",
    "short": "csh",
    "lon": 107.1999716,
    "lat": 29.9679275,
    "geo_source": "osm"
  },
  "CSP": {
    "name": "磁山",
    "city": "邯郸",
    "pinyin": "cishan",
    "short": "csh",
    "lon": 114.1111016,
    "lat": 36.5973527,
    "geo_source": "osm"
  },
  "CSQ": {
    "name": "长沙",
    "city": "长沙",
    "pinyin": "changsha",
    "short": "csh",
    "lon": 113.0088425,
    "lat": 28.1971531,
    "geo_source": "osm"
  },
  "CSU": {
    "name": "常山",
    "city": "衢州",
    "pinyin": "changshan",
    "short": "csh",
    "lon": 118.5556738,
    "lat": 28.9257657,
    "geo_source": "osm"
  },
  "CTE": {
    "name": "朝天",
    "city": "广元",
    "pinyin": "chaotian",
    "short": "cti",
    "lon": 106.0687709,
    "lat": 32.7070994,
    "geo_source": "osm"
  },
  "CTH": {
    "name": "余姚北",
    "city": "宁波",
    "pinyin": "yuyaobei",
    "short": "yyb",
    "lon": 121.1637121,
    "lat": 30.1008272,
    "geo_source": "osm"
  },
  "CTQ": {
    "name": "银滩",
    "city": "儋州",
    "pinyin": "yintan",
    "short": "yta",
    "lon": 109.4852143,
    "lat": 19.7920361,
    "geo_source": "osm"
  },
  "CTT": {
    "name": "昌图",
    "city": "铁岭",
    "pinyin": "changtu",
    "short": "ctu",
    "lon": 124.1111745,
    "lat": 42.7765285,
    "geo_source": "osm"
  },
  "CTY": {
    "name": "朝天南",
    "city": "广元",
    "pinyin": "chaotiannan",
    "short": "ctn",
    "lon": 105.8750232,
    "lat": 32.6403574,
    "geo_source": "osm"
  },
  "CUF": {
    "name": "长治东",
    "city": "长治",
    "pinyin": "changzhidong",
    "short": "czd",
    "lon": 113.159081,
    "lat": 36.2290739,
    "geo_source": "osm"
  },
  "CUH": {
    "name": "滁州北",
    "city": "滁州",
    "pinyin": "chuzhoubei",
    "short": "czb",
    "lon": 118.3225366,
    "lat": 32.310393,
    "geo_source": "osm"
  },
  "CUL": {
    "name": "长白山",
    "city": "延边",
    "pinyin": "changbaishan",
    "short": "cbs",
    "lon": 128.1219234,
    "lat": 42.4605171,
    "geo_source": "osm"
  },
  "CUM": {
    "name": "楚雄",
    "city": "楚雄",
    "pinyin": "chuxiong",
    "short": "cxi",
    "lon": 101.5427023,
    "lat": 25.0853037,
    "geo_source": "osm"
  },
  "CUQ": {
    "name": "慈利",
    "city": "张家界",
    "pinyin": "cili",
    "short": "cli",
    "lon": 111.1140388,
    "lat": 29.4193227,
    "geo_source": "osm"
  },
  "CUW": {
    "name": "重庆北",
    "city": "重庆",
    "pinyin": "chongqingbei",
    "short": "cqb",
    "lon": 106.5472729,
    "lat": 29.6123216,
    "geo_source": "osm"
  },
  "CUY": {
    "name": "澄城",
    "city": "渭南",
    "pinyin": "chengcheng",
    "short": "cch",
    "lon": 109.9333877,
    "lat": 35.2868879,
    "geo_source": "osm"
  },
  "CVA": {
    "name": "陈村",
    "city": "佛山",
    "pinyin": "chencun",
    "short": "ccu",
    "lon": 113.2333737,
    "lat": 22.9721056,
    "geo_source": "osm"
  },
  "CVK": {
    "name": "常庄",
    "city": "济南",
    "pinyin": "changzhuang",
    "short": "czh",
    "lon": 117.8839029,
    "lat": 36.3232845,
    "geo_source": "osm"
  },
  "CVO": {
    "name": "茶卡",
    "city": "海西州",
    "pinyin": "chaka",
    "short": "cka",
    "lon": 99.0574336,
    "lat": 36.7965878,
    "geo_source": "osm"
  },
  "CVS": {
    "name": "长乐南",
    "city": "福州",
    "pinyin": "changlenan",
    "short": "cln",
    "lon": 119.591247,
    "lat": 25.757416,
    "geo_source": "osm"
  },
  "CVT": {
    "name": "长山屯",
    "city": "松原",
    "pinyin": "changshantun",
    "short": "cst",
    "lon": 124.4627574,
    "lat": 45.3117649,
    "geo_source": "osm"
  },
  "CWJ": {
    "name": "褚家湾",
    "city": "固原",
    "pinyin": "zhujiawan",
    "short": "zjw",
    "lon": 106.1144184,
    "lat": 36.3946832,
    "geo_source": "osm"
  },
  "CWM": {
    "name": "车转湾",
    "city": "曲靖",
    "pinyin": "chezhuanwan",
    "short": "czw",
    "lon": 104.15031,
    "lat": 25.69535,
    "geo_source": "osm"
  },
  "CWQ": {
    "name": "长沙南",
    "city": "长沙",
    "pinyin": "changshanan",
    "short": "csn",
    "lon": 113.0598811,
    "lat": 28.1500782,
    "geo_source": "osm"
  },
  "CWT": {
    "name": "城子坦",
    "city": "大连",
    "pinyin": "chengzitan",
    "short": "czt",
    "lon": 122.472888,
    "lat": 39.4940844,
    "geo_source": "osm"
  },
  "CWY": {
    "name": "长武",
    "city": "咸阳",
    "pinyin": "changwu",
    "short": "cwu",
    "lon": 107.8178377,
    "lat": 35.2728522,
    "geo_source": "osm"
  },
  "CXA": {
    "name": "长安西",
    "city": "东莞",
    "pinyin": "changanxi",
    "short": "cax",
    "lon": 113.7240824,
    "lat": 22.7882761,
    "geo_source": "osm"
  },
  "CXE": {
    "name": "苍溪",
    "city": "广元",
    "pinyin": "cangxi",
    "short": "cxi",
    "lon": 105.9121679,
    "lat": 31.7626677,
    "geo_source": "osm"
  },
  "CXH": {
    "name": "滁州",
    "city": "滁州",
    "pinyin": "chuzhou",
    "short": "czh",
    "lon": 118.3149427,
    "lat": 32.1999745,
    "geo_source": "osm"
  },
  "CXK": {
    "name": "曹县",
    "city": "菏泽",
    "pinyin": "caoxian",
    "short": "cxi",
    "lon": 115.5764937,
    "lat": 34.8269281,
    "geo_source": "osm"
  },
  "CXQ": {
    "name": "辰溪",
    "city": "怀化",
    "pinyin": "chenxi",
    "short": "cxi",
    "lon": 110.2507511,
    "lat": 27.8817329,
    "geo_source": "osm"
  },
  "CXT": {
    "name": "陈相屯",
    "city": "沈阳",
    "pinyin": "chenxiangtun",
    "short": "cxt",
    "lon": 123.5257931,
    "lat": 41.562813,
    "geo_source": "osm"
  },
  "CXW": {
    "name": "重庆西",
    "city": "重庆",
    "pinyin": "chongqingxi",
    "short": "cqx",
    "lon": 106.4322258,
    "lat": 29.5030187,
    "geo_source": "osm"
  },
  "CXY": {
    "name": "眉县东",
    "city": "宝鸡",
    "pinyin": "meixiandong",
    "short": "mxd",
    "lon": 107.8377036,
    "lat": 34.2728106,
    "geo_source": "osm"
  },
  "CYD": {
    "name": "朝阳南",
    "city": "朝阳",
    "pinyin": "chaoyangnan",
    "short": "cyn",
    "lon": 120.4362414,
    "lat": 41.5772777,
    "geo_source": "osm"
  },
  "CYE": {
    "name": "朝阳湖",
    "city": "成都",
    "pinyin": "chaoyanghu",
    "short": "cyh",
    "lon": 103.4433349,
    "lat": 30.1698298,
    "geo_source": "osm"
  },
  "CYF": {
    "name": "长垣",
    "city": "新乡",
    "pinyin": "changyuan",
    "short": "cyu",
    "lon": 114.654157,
    "lat": 35.211724,
    "geo_source": "osm"
  },
  "CYK": {
    "name": "磁窑",
    "city": "泰安",
    "pinyin": "ciyao",
    "short": "cya",
    "lon": 117.1006229,
    "lat": 35.9014286,
    "geo_source": "osm"
  },
  "CYN": {
    "name": "长阳",
    "city": "宜昌",
    "pinyin": "changyang",
    "short": "cya",
    "lon": 110.8451683,
    "lat": 30.6229048,
    "geo_source": "osm"
  },
  "CYP": {
    "name": "超梁沟",
    "city": "承德",
    "pinyin": "chaolianggou",
    "short": "clg",
    "lon": 117.689326,
    "lat": 41.2312243,
    "geo_source": "osm"
  },
  "CYW": {
    "name": "沙坪坝",
    "city": "重庆",
    "pinyin": "shapingba",
    "short": "spb",
    "lon": 106.4562321,
    "lat": 29.5568043,
    "geo_source": "osm"
  },
  "CZB": {
    "name": "成高子",
    "city": "哈尔滨",
    "pinyin": "chenggaozi",
    "short": "cgz",
    "lon": 126.8304017,
    "lat": 45.6975918,
    "geo_source": "osm"
  },
  "CZE": {
    "name": "崇州",
    "city": "成都",
    "pinyin": "chongzhou",
    "short": "czh",
    "lon": 103.6803769,
    "lat": 30.6127269,
    "geo_source": "osm"
  },
  "CZF": {
    "name": "长治",
    "city": "长治",
    "pinyin": "changzhi",
    "short": "czh",
    "lon": 113.0640834,
    "lat": 36.1885065,
    "geo_source": "osm"
  },
  "CZH": {
    "name": "常州",
    "city": "常州",
    "pinyin": "changzhou",
    "short": "czh",
    "lon": 119.9682006,
    "lat": 31.7866804,
    "geo_source": "osm"
  },
  "CZJ": {
    "name": "长征",
    "city": "白银",
    "pinyin": "changzheng",
    "short": "czh",
    "lon": 104.8450584,
    "lat": 36.7238114,
    "geo_source": "osm"
  },
  "CZL": {
    "name": "朝阳镇",
    "city": "通化",
    "pinyin": "chaoyangzhen",
    "short": "cyz",
    "lon": 126.0215833,
    "lat": 42.6818101,
    "geo_source": "osm"
  },
  "CZQ": {
    "name": "郴州",
    "city": "郴州",
    "pinyin": "chenzhou",
    "short": "czh",
    "lon": 113.0277796,
    "lat": 25.8112435,
    "geo_source": "osm"
  },
  "CZY": {
    "name": "陈庄",
    "city": "蒲城",
    "pinyin": "chenzhuang",
    "short": "czh",
    "lon": 109.5923374,
    "lat": 34.8557341,
    "geo_source": "osm"
  },
  "CZZ": {
    "name": "崇左",
    "city": "崇左",
    "pinyin": "chongzuo",
    "short": "czu",
    "lon": 107.35408,
    "lat": 22.406414,
    "geo_source": "osm"
  },
  "DAG": {
    "name": "德安",
    "city": "九江",
    "pinyin": "dean",
    "short": "dan",
    "lon": 115.7618872,
    "lat": 29.3117818,
    "geo_source": "osm"
  },
  "DAL": {
    "name": "大石头南",
    "city": "延边",
    "pinyin": "dashitounan",
    "short": "dsn",
    "lon": 128.4507243,
    "lat": 43.2981489,
    "geo_source": "osm"
  },
  "DAP": {
    "name": "大杖子",
    "city": "承德",
    "pinyin": "dazhangzi",
    "short": "dzz",
    "lon": 118.5433553,
    "lat": 40.8495983,
    "geo_source": "osm"
  },
  "DAQ": {
    "name": "常平",
    "city": "东莞",
    "pinyin": "changping",
    "short": "cpi",
    "lon": 114.0003801,
    "lat": 22.9871798,
    "geo_source": "osm"
  },
  "DBB": {
    "name": "东边井",
    "city": "绥化",
    "pinyin": "dongbianjing",
    "short": "dbj",
    "lon": 127.1057258,
    "lat": 47.4084599,
    "geo_source": "osm"
  },
  "DBC": {
    "name": "大板",
    "city": "赤峰",
    "pinyin": "daban",
    "short": "dba",
    "lon": 118.6333751,
    "lat": 43.5229591,
    "geo_source": "osm"
  },
  "DBD": {
    "name": "大巴",
    "city": "阜新",
    "pinyin": "daba",
    "short": "dba",
    "lon": null,
    "lat": null,
    "geo_source": null
  },
  "DBH": {
    "name": "东台",
    "city": "盐城",
    "pinyin": "dongtai",
    "short": "dta",
    "lon": 120.3394002,
    "lat": 32.8760478,
    "geo_source": "osm"
  },
  "DBJ": {
    "name": "大坝",
    "city": "青铜峡",
    "pinyin": "daba",
    "short": "dba",
    "lon": 105.9298995,
    "lat": 38.0240585,
    "geo_source": "osm"
  },
  "DBM": {
    "name": "大田边",
    "city": "曲靖",
    "pinyin": "datianbian",
    "short": "dtb",
    "lon": 104.7174174,
    "lat": 25.2208268,
    "geo_source": "osm"
  },
  "DBN": {
    "name": "大冶北",
    "city": "黄石",
    "pinyin": "dayebei",
    "short": "dyb",
    "lon": 114.9953912,
    "lat": 30.1248683,
    "geo_source": "osm"
  },
  "DBV": {
    "name": "东淤地",
    "city": "忻州",
    "pinyin": "dongyudi",
    "short": "dyd",
    "lon": 113.90068,
    "lat": 39.26231,
    "geo_source": "osm"
  },
  "DCB": {
    "name": "达连河",
    "city": "哈尔滨",
    "pinyin": "dalianhe",
    "short": "dlh",
    "lon": 129.4574082,
    "lat": 46.1464732,
    "geo_source": "osm"
  },
  "DCG": {
    "name": "都昌",
    "city": "九江",
    "pinyin": "duchang",
    "short": "dch",
    "lon": 116.4133009,
    "lat": 29.482147,
    "geo_source": "osm"
  },
  "DCH": {
    "name": "东至",
    "city": "池州",
    "pinyin": "dongzhi",
    "short": "dzh",
    "lon": 117.0230412,
    "lat": 30.175007,
    "geo_source": "osm"
  },
  "DCI": {
    "name": "大厂",
    "city": "廊坊",
    "pinyin": "dachang",
    "short": "dch",
    "lon": 116.8975599,
    "lat": 39.8885609,
    "geo_source": "osm"
  },
  "DCJ": {
    "name": "东岔",
    "city": "天水",
    "pinyin": "dongcha",
    "short": "dch",
    "lon": 106.5359848,
    "lat": 34.443955,
    "geo_source": "osm"
  },
  "DCK": {
    "name": "烟台西",
    "city": "烟台",
    "pinyin": "yantaixi",
    "short": "ytx",
    "lon": 121.0495084,
    "lat": 37.6571931,
    "geo_source": "osm"
  },
  "DCR": {
    "name": "达坂城",
    "city": "乌鲁木齐",
    "pinyin": "dabancheng",
    "short": "dbc",
    "lon": 88.2949239,
    "lat": 43.3544329,
    "geo_source": "osm"
  },
  "DCT": {
    "name": "大成",
    "city": "沈阳",
    "pinyin": "dacheng",
    "short": "dch",
    "lon": 123.3394332,
    "lat": 41.8282721,
    "geo_source": "osm"
  },
  "DCZ": {
    "name": "东安东",
    "city": "永州",
    "pinyin": "dongandong",
    "short": "dad",
    "lon": 111.3319194,
    "lat": 26.3810668,
    "geo_source": "osm"
  },
  "DDB": {
    "name": "滴道",
    "city": "鸡西",
    "pinyin": "didao",
    "short": "dda",
    "lon": 130.8256951,
    "lat": 45.3437805,
    "geo_source": "osm"
  },
  "DDE": {
    "name": "独山东",
    "city": "都匀",
    "pinyin": "dushandong",
    "short": "dsd",
    "lon": 107.5738319,
    "lat": 25.8627773,
    "geo_source": "osm"
  },
  "DDF": {
    "name": "邓州东",
    "city": "南阳",
    "pinyin": "dengzhoudong",
    "short": "dzd",
    "lon": 112.2606182,
    "lat": 32.598457,
    "geo_source": "osm"
  },
  "DDG": {
    "name": "德兴东",
    "city": "上饶",
    "pinyin": "dexingdong",
    "short": "dxd",
    "lon": 117.9537895,
    "lat": 29.11936,
    "geo_source": "osm"
  },
  "DDW": {
    "name": "都江堰",
    "city": "成都",
    "pinyin": "dujiangyan",
    "short": "djy",
    "lon": 103.6365665,
    "lat": 30.9593459,
    "geo_source": "osm"
  },
  "DEE": {
    "name": "大邑",
    "city": "成都",
    "pinyin": "dayi",
    "short": "dyi",
    "lon": 103.5331808,
    "lat": 30.5630612,
    "geo_source": "osm"
  },
  "DEP": {
    "name": "洞庙河",
    "city": "承德",
    "pinyin": "dongmiaohe",
    "short": "dmh",
    "lon": 117.6885176,
    "lat": 40.570311,
    "geo_source": "osm"
  },
  "DEU": {
    "name": "定远东",
    "city": "滁州",
    "pinyin": "dingyuandong",
    "short": "dyd",
    "lon": 117.8382064,
    "lat": 32.5733556,
    "geo_source": "osm"
  },
  "DFB": {
    "name": "东方红",
    "city": "鸡西",
    "pinyin": "dongfanghong",
    "short": "dfh",
    "lon": 133.0761523,
    "lat": 46.1975696,
    "geo_source": "osm"
  },
  "DFE": {
    "name": "大方",
    "city": "毕节",
    "pinyin": "dafang",
    "short": "dfa",
    "lon": 105.5919606,
    "lat": 27.2104502,
    "geo_source": "osm"
  },
  "DFJ": {
    "name": "大武口",
    "city": "石嘴山",
    "pinyin": "dawukou",
    "short": "dwk",
    "lon": 106.3876419,
    "lat": 39.0269264,
    "geo_source": "osm"
  },
  "DFP": {
    "name": "大涧",
    "city": "大同",
    "pinyin": "dajian",
    "short": "dji",
    "lon": 114.2969291,
    "lat": 39.4782078,
    "geo_source": "osm"
  },
  "DFQ": {
    "name": "大源",
    "city": "广州",
    "pinyin": "dayuan",
    "short": "dyu",
    "lon": 113.3499583,
    "lat": 23.2504281,
    "geo_source": "osm"
  },
  "DFT": {
    "name": "大连北",
    "city": "大连",
    "pinyin": "dalianbei",
    "short": "dlb",
    "lon": 121.6024008,
    "lat": 39.0157452,
    "geo_source": "osm"
  },
  "DFZ": {
    "name": "道州",
    "city": "永州",
    "pinyin": "daozhou",
    "short": "dzh",
    "lon": 111.5645919,
    "lat": 25.5183296,
    "geo_source": "osm"
  },
  "DGA": {
    "name": "东莞港",
    "city": "东莞",
    "pinyin": "dongguangang",
    "short": "dgg",
    "lon": 113.6061726,
    "lat": 22.9106447,
    "geo_source": "osm"
  },
  "DGJ": {
    "name": "打柴沟",
    "city": "武威",
    "pinyin": "dachaigou",
    "short": "dcg",
    "lon": 102.996988,
    "lat": 37.089861,
    "geo_source": "osm"
  },
  "DGP": {
    "name": "东光",
    "city": "沧州",
    "pinyin": "dongguang",
    "short": "dgu",
    "lon": 116.5253183,
    "lat": 37.8918185,
    "geo_source": "osm"
  },
  "DGT": {
    "name": "灯塔",
    "city": "辽阳",
    "pinyin": "dengta",
    "short": "dta",
    "lon": 123.3115393,
    "lat": 41.4280914,
    "geo_source": "osm"
  },
  "DGY": {
    "name": "丹凤",
    "city": "商洛",
    "pinyin": "danfeng",
    "short": "dfe",
    "lon": 110.3490202,
    "lat": 33.6813506,
    "geo_source": "osm"
  },
  "DHA": {
    "name": "东环",
    "city": "广州",
    "pinyin": "donghuan",
    "short": "dhu",
    "lon": 113.3604784,
    "lat": 22.9768441,
    "geo_source": "osm"
  },
  "DHB": {
    "name": "东海",
    "city": "鸡西",
    "pinyin": "donghai",
    "short": "dha",
    "lon": 131.3072726,
    "lat": 45.2883303,
    "geo_source": "osm"
  },
  "DHD": {
    "name": "大虎山",
    "city": "锦州",
    "pinyin": "dahushan",
    "short": "dhs",
    "lon": 122.1432253,
    "lat": 41.6113085,
    "geo_source": "osm"
  },
  "DHJ": {
    "name": "敦煌",
    "city": "酒泉",
    "pinyin": "dunhuang",
    "short": "dhu",
    "lon": 94.7834113,
    "lat": 40.1678472,
    "geo_source": "osm"
  },
  "DHL": {
    "name": "敦化",
    "city": "延边",
    "pinyin": "dunhua",
    "short": "dhu",
    "lon": 128.2403343,
    "lat": 43.3779174,
    "geo_source": "osm"
  },
  "DHO": {
    "name": "德令哈",
    "city": "德令哈",
    "pinyin": "delingha",
    "short": "dlh",
    "lon": 97.3829985,
    "lat": 37.3147944,
    "geo_source": "osm"
  },
  "DHP": {
    "name": "大灰厂",
    "city": "北京",
    "pinyin": "dahuichang",
    "short": "dhc",
    "lon": 116.1214406,
    "lat": 39.8504828,
    "geo_source": "osm"
  },
  "DHR": {
    "name": "柳园",
    "city": "酒泉",
    "pinyin": "liuyuan",
    "short": "lyu",
    "lon": 95.5053524,
    "lat": 41.1051772,
    "geo_source": "osm"
  },
  "DHT": {
    "name": "德惠",
    "city": "长春",
    "pinyin": "dehui",
    "short": "dhu",
    "lon": 125.7102844,
    "lat": 44.5312397,
    "geo_source": "osm"
  },
  "DIC": {
    "name": "达拉特旗",
    "city": "鄂尔多斯",
    "pinyin": "dalateqi",
    "short": "dlq",
    "lon": null,
    "lat": null,
    "geo_source": null
  },
  "DIG": {
    "name": "定南南",
    "city": "赣州",
    "pinyin": "dingnannan",
    "short": "dnn",
    "lon": 115.0254012,
    "lat": 24.7459848,
    "geo_source": "osm"
  },
  "DIL": {
    "name": "东丰",
    "city": "辽源",
    "pinyin": "dongfeng",
    "short": "dfe",
    "lon": 125.539828,
    "lat": 42.652216,
    "geo_source": "osm"
  },
  "DIP": {
    "name": "德州东",
    "city": "德州",
    "pinyin": "dezhoudong",
    "short": "dzd",
    "lon": 116.4558211,
    "lat": 37.4089344,
    "geo_source": "osm"
  },
  "DIQ": {
    "name": "张家界",
    "city": "张家界",
    "pinyin": "zhangjiajie",
    "short": "zjj",
    "lon": 110.4817343,
    "lat": 29.1066515,
    "geo_source": "osm"
  },
  "DIU": {
    "name": "东阳北",
    "city": "金华",
    "pinyin": "dongyangbei",
    "short": "dyb",
    "lon": 120.2740374,
    "lat": 29.315443,
    "geo_source": "osm"
  },
  "DJB": {
    "name": "东京城",
    "city": "牡丹江",
    "pinyin": "dongjingcheng",
    "short": "djc",
    "lon": 129.2185065,
    "lat": 44.1156997,
    "geo_source": "osm"
  },
  "DJE": {
    "name": "垫江",
    "city": "垫江",
    "pinyin": "dianjiang",
    "short": "dji",
    "lon": 107.3737305,
    "lat": 30.3097234,
    "geo_source": "osm"
  },
  "DJP": {
    "name": "大营镇",
    "city": "衡水",
    "pinyin": "dayingzhen",
    "short": "dyz",
    "lon": 115.7299012,
    "lat": 37.3174736,
    "geo_source": "osm"
  },
  "DKA": {
    "name": "洞口",
    "city": "邵阳",
    "pinyin": "dongkou",
    "short": "dko",
    "lon": 110.613023,
    "lat": 27.0986074,
    "geo_source": "osm"
  },
  "DKB": {
    "name": "东津",
    "city": "绥化",
    "pinyin": "dongjin",
    "short": "dji",
    "lon": 127.209177,
    "lat": 46.7372697,
    "geo_source": "osm"
  },
  "DKH": {
    "name": "砀山",
    "city": "宿州",
    "pinyin": "dangshan",
    "short": "dsh",
    "lon": 116.3248005,
    "lat": 34.4173276,
    "geo_source": "osm"
  },
  "DKJ": {
    "name": "大磴沟",
    "city": "石嘴山",
    "pinyin": "dadenggou",
    "short": "ddg",
    "lon": 106.3463876,
    "lat": 39.193441,
    "geo_source": "osm"
  },
  "DKM": {
    "name": "大理",
    "city": "大理",
    "pinyin": "dali",
    "short": "dli",
    "lon": 100.2485243,
    "lat": 25.5919445,
    "geo_source": "osm"
  },
  "DKP": {
    "name": "大口屯",
    "city": "天津",
    "pinyin": "dakoutun",
    "short": "dkt",
    "lon": 117.2581281,
    "lat": 39.6035914,
    "geo_source": "osm"
  },
  "DKS": {
    "name": "德化",
    "city": "泉州",
    "pinyin": "dehua",
    "short": "dhu",
    "lon": 118.1777473,
    "lat": 25.5068861,
    "geo_source": "osm"
  },
  "DKV": {
    "name": "代县",
    "city": "忻州",
    "pinyin": "daixian",
    "short": "dxi",
    "lon": 112.97778,
    "lat": 39.07609,
    "geo_source": "osm"
  },
  "DLB": {
    "name": "带岭",
    "city": "伊春",
    "pinyin": "dailing",
    "short": "dli",
    "lon": 129.0137195,
    "lat": 47.0207715,
    "geo_source": "osm"
  },
  "DLD": {
    "name": "大林",
    "city": "通辽",
    "pinyin": "dalin",
    "short": "dli",
    "lon": 120.455979,
    "lat": 23.6008136,
    "geo_source": "osm"
  },
  "DLT": {
    "name": "大连",
    "city": "大连",
    "pinyin": "dalian",
    "short": "dli",
    "lon": 121.6277343,
    "lat": 38.9216608,
    "geo_source": "osm"
  },
  "DLV": {
    "name": "豆罗",
    "city": "忻州",
    "pinyin": "douluo",
    "short": "dlu",
    "lon": 112.6951161,
    "lat": 38.3053676,
    "geo_source": "osm"
  },
  "DMD": {
    "name": "东明村",
    "city": "通辽",
    "pinyin": "dongmingcun",
    "short": "dmc",
    "lon": 121.2227105,
    "lat": 43.2711429,
    "geo_source": "osm"
  },
  "DMM": {
    "name": "都格",
    "city": "六盘水",
    "pinyin": "duge",
    "short": "dge",
    "lon": 104.7516722,
    "lat": 26.368713,
    "geo_source": "osm"
  },
  "DMQ": {
    "name": "东莞东",
    "city": "东莞",
    "pinyin": "dongguandong",
    "short": "dgd",
    "lon": 114.033974,
    "lat": 22.9697892,
    "geo_source": "osm"
  },
  "DMV": {
    "name": "大同南",
    "city": "大同",
    "pinyin": "datongnan",
    "short": "dtn",
    "lon": 113.3581164,
    "lat": 40.0435567,
    "geo_source": "osm"
  },
  "DNA": {
    "name": "东莞南",
    "city": "东莞",
    "pinyin": "dongguannan",
    "short": "dgn",
    "lon": 114.063536,
    "lat": 22.8480574,
    "geo_source": "osm"
  },
  "DNC": {
    "name": "达拉特西",
    "city": "鄂尔多斯",
    "pinyin": "dalatexi",
    "short": "dlx",
    "lon": 109.8861949,
    "lat": 40.3790361,
    "geo_source": "osm"
  },
  "DNE": {
    "name": "大方南",
    "city": "毕节",
    "pinyin": "dafangnan",
    "short": "dfn",
    "lon": 105.5652995,
    "lat": 27.1208647,
    "geo_source": "osm"
  },
  "DNF": {
    "name": "东明县",
    "city": "菏泽",
    "pinyin": "dongmingxian",
    "short": "dmx",
    "lon": 115.0863545,
    "lat": 35.268625,
    "geo_source": "osm"
  },
  "DNG": {
    "name": "定南",
    "city": "赣州",
    "pinyin": "dingnan",
    "short": "dna",
    "lon": 115.0000874,
    "lat": 24.7778055,
    "geo_source": "osm"
  },
  "DNJ": {
    "name": "定西北",
    "city": "定西",
    "pinyin": "dingxibei",
    "short": "dxb",
    "lon": 104.5834279,
    "lat": 35.6068067,
    "geo_source": "osm"
  },
  "DNU": {
    "name": "大港南",
    "city": "镇江",
    "pinyin": "dagangnan",
    "short": "dgn",
    "lon": 119.6727076,
    "lat": 32.1352525,
    "geo_source": "osm"
  },
  "DNV": {
    "name": "东镇",
    "city": "运城",
    "pinyin": "dongzhen",
    "short": "dzh",
    "lon": 111.3062046,
    "lat": 35.4277254,
    "geo_source": "osm"
  },
  "DNY": {
    "name": "大荔",
    "city": "渭南",
    "pinyin": "dali",
    "short": "dli",
    "lon": 109.920831,
    "lat": 34.8356277,
    "geo_source": "osm"
  },
  "DNZ": {
    "name": "大拟",
    "city": "南宁",
    "pinyin": "dani",
    "short": "dni",
    "lon": 108.5154141,
    "lat": 22.2999343,
    "geo_source": "osm"
  },
  "DOC": {
    "name": "东胜",
    "city": "鄂尔多斯",
    "pinyin": "dongsheng",
    "short": "dsh",
    "lon": 109.9703013,
    "lat": 39.8145874,
    "geo_source": "osm"
  },
  "DOF": {
    "name": "邓州",
    "city": "南阳",
    "pinyin": "dengzhou",
    "short": "dzh",
    "lon": 112.064691,
    "lat": 32.685009,
    "geo_source": "osm"
  },
  "DOK": {
    "name": "东营南",
    "city": "东营",
    "pinyin": "dongyingnan",
    "short": "dyn",
    "lon": 118.545187,
    "lat": 37.3560714,
    "geo_source": "osm"
  },
  "DON": {
    "name": "丹江口",
    "city": "十堰",
    "pinyin": "danjiangkou",
    "short": "djk",
    "lon": 111.3822945,
    "lat": 32.4597963,
    "geo_source": "osm"
  },
  "DOP": {
    "name": "定州东",
    "city": "保定",
    "pinyin": "dingzhoudong",
    "short": "dzd",
    "lon": 115.1248048,
    "lat": 38.4638621,
    "geo_source": "osm"
  },
  "DPD": {
    "name": "大平房",
    "city": "朝阳",
    "pinyin": "dapingfang",
    "short": "dpf",
    "lon": 120.1475812,
    "lat": 41.4299085,
    "geo_source": "osm"
  },
  "DPI": {
    "name": "大埔",
    "city": "梅州",
    "pinyin": "dapu",
    "short": "dpu",
    "lon": 116.5729973,
    "lat": 24.4124082,
    "geo_source": "osm"
  },
  "DPJ": {
    "name": "东风南",
    "city": "酒泉",
    "pinyin": "dongfengnan",
    "short": "dfn",
    "lon": 100.1842028,
    "lat": 40.9754998,
    "geo_source": "osm"
  },
  "DPK": {
    "name": "东营",
    "city": "东营",
    "pinyin": "dongying",
    "short": "dyi",
    "lon": 118.4663142,
    "lat": 37.4545914,
    "geo_source": "osm"
  },
  "DQB": {
    "name": "对青山",
    "city": "哈尔滨",
    "pinyin": "duiqingshan",
    "short": "dqs",
    "lon": 126.3384204,
    "lat": 45.9287369,
    "geo_source": "osm"
  },
  "DQH": {
    "name": "东海县",
    "city": "连云港",
    "pinyin": "donghaixian",
    "short": "dhx",
    "lon": 118.7636125,
    "lat": 34.5168118,
    "geo_source": "osm"
  },
  "DQK": {
    "name": "定陶",
    "city": "菏泽",
    "pinyin": "dingtao",
    "short": "dta",
    "lon": 115.5902831,
    "lat": 35.0656469,
    "geo_source": "osm"
  },
  "DQT": {
    "name": "大石桥",
    "city": "营口",
    "pinyin": "dashiqiao",
    "short": "dsq",
    "lon": 122.500751,
    "lat": 40.643806,
    "geo_source": "osm"
  },
  "DQU": {
    "name": "杜桥",
    "city": "台州",
    "pinyin": "duqiao",
    "short": "dqi",
    "lon": 121.4640804,
    "lat": 28.7798735,
    "geo_source": "osm"
  },
  "DQX": {
    "name": "大其拉哈",
    "city": "呼伦贝尔",
    "pinyin": "daqilaha",
    "short": "dqh",
    "lon": null,
    "lat": null,
    "geo_source": null
  },
  "DRB": {
    "name": "东二道河",
    "city": "佳木斯",
    "pinyin": "dongerdaohe",
    "short": "deh",
    "lon": 134.1140699,
    "lat": 47.6841461,
    "geo_source": "osm"
  },
  "DRH": {
    "name": "德清",
    "city": "湖州",
    "pinyin": "deqing",
    "short": "dqi",
    "lon": 120.0568201,
    "lat": 30.5470252,
    "geo_source": "osm"
  },
  "DRJ": {
    "name": "东湾",
    "city": "白银",
    "pinyin": "dongwan",
    "short": "dwa",
    "lon": 104.7425,
    "lat": 36.65134,
    "geo_source": "osm"
  },
  "DRQ": {
    "name": "东升",
    "city": "中山",
    "pinyin": "dongsheng",
    "short": "dsh",
    "lon": 113.2793078,
    "lat": 22.6073119,
    "geo_source": "osm"
  },
  "DRX": {
    "name": "得耳布尔",
    "city": "呼伦贝尔",
    "pinyin": "deerbuer",
    "short": "dee",
    "lon": 121.0714185,
    "lat": 50.991434,
    "geo_source": "osm"
  },
  "DSJ": {
    "name": "定西",
    "city": "定西",
    "pinyin": "dingxi",
    "short": "dxi",
    "lon": 104.6225925,
    "lat": 35.5926863,
    "geo_source": "osm"
  },
  "DTB": {
    "name": "得莫利",
    "city": "哈尔滨",
    "pinyin": "demoli",
    "short": "dml",
    "lon": 129.0259695,
    "lat": 45.8752575,
    "geo_source": "osm"
  },
  "DTJ": {
    "name": "大战场",
    "city": "中卫",
    "pinyin": "dazhanchang",
    "short": "dzc",
    "lon": 105.5428112,
    "lat": 37.4217922,
    "geo_source": "osm"
  },
  "DTK": {
    "name": "董家口",
    "city": "青岛",
    "pinyin": "dongjiakou",
    "short": "djk",
    "lon": 119.708426,
    "lat": 35.6756355,
    "geo_source": "osm"
  },
  "DTO": {
    "name": "大通西",
    "city": "西宁",
    "pinyin": "datongxi",
    "short": "dtx",
    "lon": 101.6717642,
    "lat": 36.9660009,
    "geo_source": "osm"
  },
  "DTS": {
    "name": "大田北",
    "city": "三明",
    "pinyin": "datianbei",
    "short": "dtb",
    "lon": 117.8414933,
    "lat": 25.7068642,
    "geo_source": "osm"
  },
  "DTT": {
    "name": "大官屯",
    "city": "抚顺",
    "pinyin": "daguantun",
    "short": "dgt",
    "lon": 123.864606,
    "lat": 41.854615,
    "geo_source": "osm"
  },
  "DTV": {
    "name": "大同",
    "city": "大同",
    "pinyin": "datong",
    "short": "dto",
    "lon": 113.2963381,
    "lat": 40.1190975,
    "geo_source": "osm"
  },
  "DUT": {
    "name": "丹东",
    "city": "丹东",
    "pinyin": "dandong",
    "short": "ddo",
    "lon": 124.3817595,
    "lat": 40.1228859,
    "geo_source": "osm"
  },
  "DUU": {
    "name": "大洋",
    "city": "建德",
    "pinyin": "dayang",
    "short": "dya",
    "lon": 119.4829279,
    "lat": 29.420398,
    "geo_source": "osm"
  },
  "DUX": {
    "name": "大杨树",
    "city": "呼伦贝尔",
    "pinyin": "dayangshu",
    "short": "dys",
    "lon": 124.6028857,
    "lat": 49.7474251,
    "geo_source": "osm"
  },
  "DVQ": {
    "name": "低庄",
    "city": "怀化",
    "pinyin": "dizhuang",
    "short": "dzh",
    "lon": 110.710622,
    "lat": 28.052671,
    "geo_source": "osm"
  },
  "DVW": {
    "name": "德昌",
    "city": "西昌",
    "pinyin": "dechang",
    "short": "dch",
    "lon": 102.185443,
    "lat": 27.3990211,
    "geo_source": "osm"
  },
  "DWE": {
    "name": "党武",
    "city": "贵阳",
    "pinyin": "dangwu",
    "short": "dwu",
    "lon": 106.6045816,
    "lat": 26.4071551,
    "geo_source": "osm"
  },
  "DWG": {
    "name": "德兴",
    "city": "上饶",
    "pinyin": "dexing",
    "short": "dxi",
    "lon": 117.8552437,
    "lat": 28.9604427,
    "geo_source": "osm"
  },
  "DWJ": {
    "name": "低窝铺",
    "city": "玉门",
    "pinyin": "diwopu",
    "short": "dwp",
    "lon": 97.241798,
    "lat": 40.142755,
    "geo_source": "osm"
  },
  "DWT": {
    "name": "登沙河",
    "city": "大连",
    "pinyin": "dengshahe",
    "short": "dsh",
    "lon": 122.063584,
    "lat": 39.2209907,
    "geo_source": "osm"
  },
  "DWV": {
    "name": "兑镇",
    "city": "吕梁",
    "pinyin": "duizhen",
    "short": "dzh",
    "lon": 111.60423,
    "lat": 37.0898,
    "geo_source": "osm"
  },
  "DXE": {
    "name": "德昌西",
    "city": "西昌",
    "pinyin": "dechangxi",
    "short": "dcx",
    "lon": 102.1646869,
    "lat": 27.4001656,
    "geo_source": "osm"
  },
  "DXG": {
    "name": "东乡",
    "city": "抚州",
    "pinyin": "dongxiang",
    "short": "dxi",
    "lon": 116.6214698,
    "lat": 28.2301039,
    "geo_source": "osm"
  },
  "DXM": {
    "name": "甸心",
    "city": "楚雄",
    "pinyin": "dianxin",
    "short": "dxi",
    "lon": 101.7185017,
    "lat": 25.3195903,
    "geo_source": "osm"
  },
  "DXN": {
    "name": "当阳西",
    "city": "当阳",
    "pinyin": "dangyangxi",
    "short": "dyx",
    "lon": 111.7526358,
    "lat": 30.8454779,
    "geo_source": "osm"
  },
  "DXP": {
    "name": "定州",
    "city": "保定",
    "pinyin": "dingzhou",
    "short": "dzh",
    "lon": 114.9671026,
    "lat": 38.5298375,
    "geo_source": "osm"
  },
  "DXT": {
    "name": "德惠西",
    "city": "长春",
    "pinyin": "dehuixi",
    "short": "dhx",
    "lon": 125.6703155,
    "lat": 44.5436343,
    "geo_source": "osm"
  },
  "DXV": {
    "name": "定襄",
    "city": "忻州",
    "pinyin": "dingxiang",
    "short": "dxi",
    "lon": 112.9542155,
    "lat": 38.4782825,
    "geo_source": "osm"
  },
  "DXX": {
    "name": "大兴",
    "city": "齐齐哈尔",
    "pinyin": "daxing",
    "short": "dxi",
    "lon": 123.7442424,
    "lat": 46.874633,
    "geo_source": "osm"
  },
  "DYC": {
    "name": "东胜西",
    "city": "鄂尔多斯",
    "pinyin": "dongshengxi",
    "short": "dsx",
    "lon": 109.8719217,
    "lat": 39.7236883,
    "geo_source": "osm"
  },
  "DYG": {
    "name": "大余",
    "city": "赣州",
    "pinyin": "dayu",
    "short": "dyu",
    "lon": 114.4195692,
    "lat": 25.4420384,
    "geo_source": "osm"
  },
  "DYH": {
    "name": "丹阳",
    "city": "镇江",
    "pinyin": "danyang",
    "short": "dya",
    "lon": 119.5885239,
    "lat": 32.0039885,
    "geo_source": "osm"
  },
  "DYJ": {
    "name": "定边",
    "city": "榆林",
    "pinyin": "dingbian",
    "short": "dbi",
    "lon": 107.5723113,
    "lat": 37.5609872,
    "geo_source": "osm"
  },
  "DYN": {
    "name": "当阳",
    "city": "宜昌",
    "pinyin": "dangyang",
    "short": "dya",
    "lon": 111.8067656,
    "lat": 30.8499539,
    "geo_source": "osm"
  },
  "DYV": {
    "name": "大营",
    "city": "忻州",
    "pinyin": "daying",
    "short": "dyi",
    "lon": 113.72618,
    "lat": 39.28543,
    "geo_source": "osm"
  },
  "DYW": {
    "name": "德阳",
    "city": "德阳",
    "pinyin": "deyang",
    "short": "dya",
    "lon": 104.3864117,
    "lat": 31.1683508,
    "geo_source": "osm"
  },
  "DYX": {
    "name": "大雁",
    "city": "呼伦贝尔",
    "pinyin": "dayan",
    "short": "dya",
    "lon": 120.5454079,
    "lat": 49.2296273,
    "geo_source": "osm"
  },
  "DYZ": {
    "name": "大元",
    "city": "南宁",
    "pinyin": "dayuan",
    "short": "dyu",
    "lon": 108.349399,
    "lat": 22.4856306,
    "geo_source": "osm"
  },
  "DZP": {
    "name": "德州",
    "city": "德州",
    "pinyin": "dezhou",
    "short": "dzh",
    "lon": 116.2826708,
    "lat": 37.4486663,
    "geo_source": "osm"
  },
  "DZV": {
    "name": "东庄",
    "city": "忻州",
    "pinyin": "dongzhuang",
    "short": "dzh",
    "lon": 113.82369,
    "lat": 39.26527,
    "geo_source": "osm"
  },
  "DZX": {
    "name": "大庆",
    "city": "大庆",
    "pinyin": "daqing",
    "short": "dqi",
    "lon": 125.0052336,
    "lat": 46.5960545,
    "geo_source": "osm"
  },
  "DZY": {
    "name": "大竹园",
    "city": "安康",
    "pinyin": "dazhuyuan",
    "short": "dzy",
    "lon": 108.7225984,
    "lat": 32.5625921,
    "geo_source": "osm"
  },
  "DZZ": {
    "name": "大王滩",
    "city": "南宁",
    "pinyin": "dawangtan",
    "short": "dwt",
    "lon": 108.2798291,
    "lat": 22.6139677,
    "geo_source": "osm"
  },
  "EAF": {
    "name": "襄垣东",
    "city": "长治",
    "pinyin": "xiangyuandong",
    "short": "xyd",
    "lon": 113.0772208,
    "lat": 36.5344866,
    "geo_source": "osm"
  },
  "EAH": {
    "name": "嘉善南",
    "city": "嘉兴",
    "pinyin": "jiashannan",
    "short": "jsn",
    "lon": 120.9315348,
    "lat": 30.7904492,
    "geo_source": "osm"
  },
  "EAM": {
    "name": "新安",
    "city": "曲靖",
    "pinyin": "xinan",
    "short": "xan",
    "lon": 104.106277,
    "lat": 24.7635166,
    "geo_source": "osm"
  },
  "EAQ": {
    "name": "小榄",
    "city": "中山",
    "pinyin": "xiaolan",
    "short": "xla",
    "lon": 113.2645825,
    "lat": 22.6505591,
    "geo_source": "osm"
  },
  "EAV": {
    "name": "隰县",
    "city": "临汾",
    "pinyin": "xixian",
    "short": "xxi",
    "lon": 110.9208346,
    "lat": 36.6503245,
    "geo_source": "osm"
  },
  "EAY": {
    "name": "西安北",
    "city": "西安",
    "pinyin": "xianbei",
    "short": "xab",
    "lon": 108.9340253,
    "lat": 34.3776675,
    "geo_source": "osm"
  },
  "EBC": {
    "name": "兴和北",
    "city": "乌兰察布",
    "pinyin": "xinghebei",
    "short": "xhb",
    "lon": 113.8353054,
    "lat": 40.8913252,
    "geo_source": "osm"
  },
  "EBF": {
    "name": "许昌北",
    "city": "许昌",
    "pinyin": "xuchangbei",
    "short": "xcb",
    "lon": 113.9242505,
    "lat": 34.1444472,
    "geo_source": "osm"
  },
  "EBP": {
    "name": "下板城",
    "city": "承德",
    "pinyin": "xiabancheng",
    "short": "xbc",
    "lon": 118.1702808,
    "lat": 40.7725126,
    "geo_source": "osm"
  },
  "EBV": {
    "name": "蔡家崖",
    "city": "吕梁",
    "pinyin": "caijiaya",
    "short": "cjy",
    "lon": 111.015464,
    "lat": 38.4932982,
    "geo_source": "osm"
  },
  "EBY": {
    "name": "咸阳北",
    "city": "咸阳",
    "pinyin": "xianyangbei",
    "short": "xyb",
    "lon": 108.6696714,
    "lat": 34.4202925,
    "geo_source": "osm"
  },
  "ECH": {
    "name": "宣城",
    "city": "宣城",
    "pinyin": "xuancheng",
    "short": "xch",
    "lon": 118.7693067,
    "lat": 30.9496986,
    "geo_source": "osm"
  },
  "ECN": {
    "name": "鄂州",
    "city": "鄂州",
    "pinyin": "ezhou",
    "short": "ezh",
    "lon": 114.8613327,
    "lat": 30.3642379,
    "geo_source": "osm"
  },
  "ECW": {
    "name": "西昌",
    "city": "西昌",
    "pinyin": "xichang",
    "short": "xch",
    "lon": 102.2223331,
    "lat": 27.8803769,
    "geo_source": "osm"
  },
  "EDE": {
    "name": "宜宾东",
    "city": "宜宾",
    "pinyin": "yibindong",
    "short": "ybd",
    "lon": 104.7426311,
    "lat": 28.8014946,
    "geo_source": "osm"
  },
  "EDM": {
    "name": "小中甸",
    "city": "香格里拉",
    "pinyin": "xiaozhongdian",
    "short": "xzd",
    "lon": 99.8134694,
    "lat": 27.5624113,
    "geo_source": "osm"
  },
  "EDP": {
    "name": "邢台东",
    "city": "邢台",
    "pinyin": "xingtaidong",
    "short": "xtd",
    "lon": 114.5859458,
    "lat": 37.0914333,
    "geo_source": "osm"
  },
  "EDQ": {
    "name": "湘潭北",
    "city": "湘潭",
    "pinyin": "xiangtanbei",
    "short": "xtb",
    "lon": 112.9371336,
    "lat": 27.9682705,
    "geo_source": "osm"
  },
  "EDW": {
    "name": "喜德",
    "city": "西昌",
    "pinyin": "xide",
    "short": "xde",
    "lon": 102.3979685,
    "lat": 28.3128312,
    "geo_source": "osm"
  },
  "EEC": {
    "name": "鄂尔多斯",
    "city": "鄂尔多斯",
    "pinyin": "eerduosi",
    "short": "ees",
    "lon": 109.8369698,
    "lat": 39.5600184,
    "geo_source": "osm"
  },
  "EEP": {
    "name": "斜河涧",
    "city": "北京",
    "pinyin": "xiehejian",
    "short": "xhj",
    "lon": null,
    "lat": null,
    "geo_source": null
  },
  "EEQ": {
    "name": "信宜",
    "city": "茂名",
    "pinyin": "xinyi",
    "short": "xyi",
    "lon": 110.9609272,
    "lat": 22.3327248,
    "geo_source": "osm"
  },
  "EFG": {
    "name": "信丰",
    "city": "赣州",
    "pinyin": "xinfeng",
    "short": "xfe",
    "lon": 114.9024383,
    "lat": 25.4003848,
    "geo_source": "osm"
  },
  "EFN": {
    "name": "鄂州东",
    "city": "鄂州",
    "pinyin": "ezhoudong",
    "short": "ezd",
    "lon": 114.9430562,
    "lat": 30.3638498,
    "geo_source": "osm"
  },
  "EFQ": {
    "name": "新会",
    "city": "江门",
    "pinyin": "xinhui",
    "short": "xhu",
    "lon": 113.0658864,
    "lat": 22.5203259,
    "geo_source": "osm"
  },
  "EFW": {
    "name": "长寿",
    "city": "长寿",
    "pinyin": "changshou",
    "short": "csh",
    "lon": 106.9621349,
    "lat": 29.7920134,
    "geo_source": "osm"
  },
  "EGF": {
    "name": "新乡东",
    "city": "新乡",
    "pinyin": "xinxiangdong",
    "short": "xxd",
    "lon": 113.9729327,
    "lat": 35.3147084,
    "geo_source": "osm"
  },
  "EGG": {
    "name": "新干",
    "city": "吉安",
    "pinyin": "xingan",
    "short": "xga",
    "lon": 115.3913154,
    "lat": 27.7356756,
    "geo_source": "osm"
  },
  "EGH": {
    "name": "金山北",
    "city": "上海",
    "pinyin": "jinshanbei",
    "short": "jsb",
    "lon": 121.0848732,
    "lat": 30.8963212,
    "geo_source": "osm"
  },
  "EGQ": {
    "name": "西平西",
    "city": "东莞",
    "pinyin": "xipingxi",
    "short": "xpx",
    "lon": 113.7404499,
    "lat": 22.9974345,
    "geo_source": "osm"
  },
  "EGY": {
    "name": "西安西",
    "city": "西安",
    "pinyin": "xianxi",
    "short": "xax",
    "lon": 108.7516022,
    "lat": 34.2712527,
    "geo_source": "osm"
  },
  "EHF": {
    "name": "西华",
    "city": "周口",
    "pinyin": "xihua",
    "short": "xhu",
    "lon": 114.6045794,
    "lat": 33.7951774,
    "geo_source": "osm"
  },
  "EHQ": {
    "name": "新化",
    "city": "娄底",
    "pinyin": "xinhua",
    "short": "xhu",
    "lon": 111.2977883,
    "lat": 27.7311944,
    "geo_source": "osm"
  },
  "EIF": {
    "name": "襄垣",
    "city": "长治",
    "pinyin": "xiangyuan",
    "short": "xyu",
    "lon": 113.028933,
    "lat": 36.5060213,
    "geo_source": "osm"
  },
  "EIP": {
    "name": "下台子",
    "city": "承德",
    "pinyin": "xiataizi",
    "short": "xtz",
    "lon": 117.735134,
    "lat": 40.6023229,
    "geo_source": "osm"
  },
  "EJC": {
    "name": "额济纳",
    "city": "阿拉善",
    "pinyin": "ejina",
    "short": "ejn",
    "lon": 101.0317688,
    "lat": 41.8968968,
    "geo_source": "osm"
  },
  "EJG": {
    "name": "峡江",
    "city": "吉安",
    "pinyin": "xiajiang",
    "short": "xji",
    "lon": 115.3307748,
    "lat": 27.6022715,
    "geo_source": "osm"
  },
  "EJH": {
    "name": "夏邑县",
    "city": "商丘",
    "pinyin": "xiayixian",
    "short": "xyx",
    "lon": 116.0247269,
    "lat": 34.4116479,
    "geo_source": "osm"
  },
  "EJM": {
    "name": "小得江",
    "city": "曲靖",
    "pinyin": "xiaodejiang",
    "short": "xdj",
    "lon": 104.5591261,
    "lat": 25.0344406,
    "geo_source": "osm"
  },
  "EJQ": {
    "name": "新化南",
    "city": "娄底",
    "pinyin": "xinhuanan",
    "short": "xhn",
    "lon": 111.1550472,
    "lat": 27.658612,
    "geo_source": "osm"
  },
  "EKB": {
    "name": "兴凯",
    "city": "鸡西",
    "pinyin": "xingkai",
    "short": "xka",
    "lon": 132.0671671,
    "lat": 45.702086,
    "geo_source": "osm"
  },
  "EKM": {
    "name": "西街口",
    "city": "昆明",
    "pinyin": "xijiekou",
    "short": "xjk",
    "lon": 103.5136599,
    "lat": 24.8245655,
    "geo_source": "osm"
  },
  "EKN": {
    "name": "襄阳东",
    "city": "襄阳",
    "pinyin": "xiangyangdong",
    "short": "xyd",
    "lon": 112.2904456,
    "lat": 32.0163888,
    "geo_source": "osm"
  },
  "EKY": {
    "name": "小河镇",
    "city": "安康",
    "pinyin": "xiaohezhen",
    "short": "xhz",
    "lon": 109.151897,
    "lat": 33.1143935,
    "geo_source": "osm"
  },
  "ELA": {
    "name": "二龙山屯",
    "city": "黑河",
    "pinyin": "erlongshantun",
    "short": "elt",
    "lon": 126.6351945,
    "lat": 48.4876146,
    "geo_source": "osm"
  },
  "ELP": {
    "name": "新乐",
    "city": "石家庄",
    "pinyin": "xinle",
    "short": "xle",
    "lon": 114.6862315,
    "lat": 38.3421669,
    "geo_source": "osm"
  },
  "EMN": {
    "name": "兴山",
    "city": "宜昌",
    "pinyin": "xingshan",
    "short": "xsh",
    "lon": 110.7455124,
    "lat": 31.3276701,
    "geo_source": "osm"
  },
  "EMQ": {
    "name": "溆浦南",
    "city": "怀化",
    "pinyin": "xupunan",
    "short": "xpn",
    "lon": 110.5880872,
    "lat": 27.6085165,
    "geo_source": "osm"
  },
  "EMR": {
    "name": "额敏",
    "city": "塔城",
    "pinyin": "emin",
    "short": "emi",
    "lon": 83.5872459,
    "lat": 46.5605645,
    "geo_source": "osm"
  },
  "EMW": {
    "name": "峨眉",
    "city": "乐山",
    "pinyin": "emei",
    "short": "eme",
    "lon": 103.5203162,
    "lat": 29.5872914,
    "geo_source": "osm"
  },
  "ENE": {
    "name": "峨边南",
    "city": "乐山",
    "pinyin": "ebiannan",
    "short": "ebn",
    "lon": 103.2607126,
    "lat": 29.2124477,
    "geo_source": "osm"
  },
  "ENF": {
    "name": "新乡南",
    "city": "新乡",
    "pinyin": "xinxiangnan",
    "short": "xxn",
    "lon": 113.8521463,
    "lat": 35.0427602,
    "geo_source": "osm"
  },
  "ENH": {
    "name": "合肥南",
    "city": "合肥",
    "pinyin": "hefeinan",
    "short": "hfn",
    "lon": 117.2848751,
    "lat": 31.8002988,
    "geo_source": "osm"
  },
  "ENM": {
    "name": "西双版纳",
    "city": "景洪",
    "pinyin": "xishuangbanna",
    "short": "xsn",
    "lon": 100.7719343,
    "lat": 21.9863052,
    "geo_source": "osm"
  },
  "ENN": {
    "name": "息县",
    "city": "信阳",
    "pinyin": "xixian",
    "short": "xxi",
    "lon": 114.8271858,
    "lat": 32.1747918,
    "geo_source": "osm"
  },
  "ENP": {
    "name": "辛集",
    "city": "石家庄",
    "pinyin": "xinji",
    "short": "xji",
    "lon": 115.2091446,
    "lat": 37.9041796,
    "geo_source": "osm"
  },
  "ENQ": {
    "name": "兴宁",
    "city": "梅州",
    "pinyin": "xingning",
    "short": "xni",
    "lon": 115.723968,
    "lat": 24.104849,
    "geo_source": "osm"
  },
  "EOH": {
    "name": "萧县",
    "city": "宿州",
    "pinyin": "xiaoxian",
    "short": "xxi",
    "lon": 116.9530638,
    "lat": 34.1701558,
    "geo_source": "osm"
  },
  "EPD": {
    "name": "新窝铺",
    "city": "赤峰",
    "pinyin": "xinwopu",
    "short": "xwp",
    "lon": 120.3954915,
    "lat": 42.7116026,
    "geo_source": "osm"
  },
  "EPH": {
    "name": "嘉兴南",
    "city": "嘉兴",
    "pinyin": "jiaxingnan",
    "short": "jxn",
    "lon": 120.795528,
    "lat": 30.6932899,
    "geo_source": "osm"
  },
  "EPQ": {
    "name": "溆浦",
    "city": "怀化",
    "pinyin": "xupu",
    "short": "xpu",
    "lon": 110.5733689,
    "lat": 27.929719,
    "geo_source": "osm"
  },
  "ERN": {
    "name": "项城",
    "city": "周口",
    "pinyin": "xiangcheng",
    "short": "xch",
    "lon": 114.8852009,
    "lat": 33.413903,
    "geo_source": "osm"
  },
  "ERP": {
    "name": "新杖子",
    "city": "承德",
    "pinyin": "xinzhangzi",
    "short": "xzz",
    "lon": 117.8746973,
    "lat": 40.7732824,
    "geo_source": "osm"
  },
  "ESH": {
    "name": "常州北",
    "city": "常州",
    "pinyin": "changzhoubei",
    "short": "czb",
    "lon": 119.9507159,
    "lat": 31.8561082,
    "geo_source": "osm"
  },
  "ESN": {
    "name": "恩施",
    "city": "恩施",
    "pinyin": "enshi",
    "short": "esh",
    "lon": 109.479878,
    "lat": 30.3512785,
    "geo_source": "osm"
  },